[{'longitude': 139.7936036, 'latitude': 35.6972034, 'start': 8, 'venue': '両国国技館', 'num_of_people': 0.7387934705737997, 'houry_num': [0, 0, 0, 0, 0, 0.2462644901912666, 0.4925289803825332, 0.7387934705737997, 0.7387934705737997, 0.7387934705737997, 0.7387934705737997, 0.4925289803825332, 0.2462644901912666, 0, 0, 0, 0, 0, 0, 0, 0, 0, 0, 0], 'date': '2016-5-21'}, {'longitude': 139.7052181, 'latitude': 35.6922864, 'start': 13, 'venue': 'テアトル新宿', 'num_of_people': 0.09742862449137653, 'houry_num': [0, 0, 0, 0, 0, 0, 0, 0, 0, 0, 0.032476208163792174, 0.06495241632758435, 0.09742862449137653, 0.09742862449137653, 0.09742862449137653, 0.09742862449137653, 0.06495241632758435, 0.032476208163792174, 0, 0, 0, 0, 0, 0], 'date': '2016-5-21'}, {'longitude': 139.7904725, 'latitude': 35.6309772, 'start': 15, 'venue': 'TFTホール', 'num_of_people': 0.11311892934068542, 'houry_num': [0, 0, 0, 0, 0, 0, 0, 0, 0, 0, 0, 0, 0.03770630978022847, 0.07541261956045694, 0.11311892934068542, 0.11311892934068542, 0.11311892934068542, 0.11311892934068542, 0.07541261956045694, 0.03770630978022847, 0, 0, 0, 0], 'date': '2016-5-21'}, {'longitude': 139.753828, 'latitude': 35.7049895, 'start': 16, 'venue': 'TOKYO DOME CITY HALL', 'num_of_people': 0.5253080401994313, 'houry_num': [0, 0, 0, 0, 0, 0, 0, 0, 0, 0, 0, 0, 0, 0.1751026800664771, 0.3502053601329542, 0.5253080401994313, 0.5253080401994313, 0.5253080401994313, 0.5253080401994313, 0.3502053601329542, 0.1751026800664771, 0, 0, 0], 'date': '2016-5-21'}, {'longitude': 139.7497593, 'latitude': 35.6934055, 'start': 17, 'venue': '日本武道館', 'num_of_people': 0.7767026914758637, 'houry_num': [0, 0, 0, 0, 0, 0, 0, 0, 0, 0, 0, 0, 0, 0, 0.25890089715862125, 0.5178017943172425, 0.7767026914758637, 0.7767026914758637, 0.7767026914758637, 0.7767026914758637, 0.5178017943172425, 0.25890089715862125, 0, 0], 'date': '2016-5-21'}, {'longitude': 139.7105837, 'latitude': 35.6490402, 'start': 17, 'venue': 'LIQUIDROOM (リキッドルーム)', 'num_of_people': 0.346018779072719, 'houry_num': [0, 0, 0, 0, 0, 0, 0, 0, 0, 0, 0, 0, 0, 0, 0.11533959302423967, 0.23067918604847934, 0.346018779072719, 0.346018779072719, 0.346018779072719, 0.346018779072719, 0.23067918604847934, 0.11533959302423967, 0, 0], 'date': '2016-5-21'}, {'longitude': 139.7596899, 'latitude': 35.672636, 'start': 17, 'venue': 'シアタークリエ', 'num_of_people': 0.26508378386691583, 'houry_num': [0, 0, 0, 0, 0, 0, 0, 0, 0, 0, 0, 0, 0, 0, 0.08836126128897194, 0.17672252257794388, 0.26508378386691583, 0.26508378386691583, 0.26508378386691583, 0.26508378386691583, 0.17672252257794388, 0.08836126128897194, 0, 0], 'date': '2016-5-21'}, {'longitude': 139.7620402, 'latitude': 35.6566796, 'start': 17, 'venue': '四季劇場[春]', 'num_of_people': 0.3830864228667848, 'houry_num': [0, 0, 0, 0, 0, 0, 0, 0, 0, 0, 0, 0, 0, 0, 0.12769547428892827, 0.25539094857785655, 0.3830864228667848, 0.3830864228667848, 0.3830864228667848, 0.3830864228667848, 0.25539094857785655, 0.12769547428892827, 0, 0], 'date': '2016-5-21'}, {'longitude': 139.6646854, 'latitude': 35.707618, 'start': 17, 'venue': '中野サンプラザ', 'num_of_people': 0.4763158151725067, 'houry_num': [0, 0, 0, 0, 0, 0, 0, 0, 0, 0, 0, 0, 0, 0, 0.15877193839083556, 0.3175438767816711, 0.4763158151725067, 0.4763158151725067, 0.4763158151725067, 0.4763158151725067, 0.3175438767816711, 0.15877193839083556, 0, 0], 'date': '2016-5-21'}, {'longitude': 139.7543263, 'latitude': 35.6728275, 'start': 17, 'venue': '日比谷野外大音楽堂', 'num_of_people': 0.5316563935141161, 'houry_num': [0, 0, 0, 0, 0, 0, 0, 0, 0, 0, 0, 0, 0, 0, 0.1772187978380387, 0.3544375956760774, 0.5316563935141161, 0.5316563935141161, 0.5316563935141161, 0.5316563935141161, 0.3544375956760774, 0.1772187978380387, 0, 0], 'date': '2016-5-21'}, {'longitude': 139.7644669, 'latitude': 35.6871844, 'start': 17, 'venue': 'よみうり大手町ホール', 'num_of_people': 0.23322591601111575, 'houry_num': [0, 0, 0, 0, 0, 0, 0, 0, 0, 0, 0, 0, 0, 0, 0.07774197200370525, 0.1554839440074105, 0.23322591601111575, 0.23322591601111575, 0.23322591601111575, 0.23322591601111575, 0.1554839440074105, 0.07774197200370525, 0, 0], 'date': '2016-5-21'}, {'longitude': 139.6987557, 'latitude': 35.6615117, 'start': 17, 'venue': 'Shibuya WWW', 'num_of_people': 0.21570542254505748, 'houry_num': [0, 0, 0, 0, 0, 0, 0, 0, 0, 0, 0, 0, 0, 0, 0.07190180751501916, 0.14380361503003833, 0.21570542254505748, 0.21570542254505748, 0.21570542254505748, 0.21570542254505748, 0.14380361503003833, 0.07190180751501916, 0, 0], 'date': '2016-5-21'}, {'longitude': 139.7531449, 'latitude': 35.7028239, 'start': 18, 'venue': '東京ドーム', 'num_of_people': 1, 'houry_num': [0, 0, 0, 0, 0, 0, 0, 0, 0, 0, 0, 0, 0, 0, 0, 0.3333333333333333, 0.6666666666666666, 1, 1, 1, 1, 0.6666666666666666, 0.3333333333333333, 0], 'date': '2016-5-21'}, {'longitude': 139.6998092, 'latitude': 35.6669377, 'start': 18, 'venue': '国立代々木競技場 第一体育館', 'num_of_people': 0.7676309099606087, 'houry_num': [0, 0, 0, 0, 0, 0, 0, 0, 0, 0, 0, 0, 0, 0, 0, 0.25587696998686954, 0.5117539399737391, 0.7676309099606087, 0.7676309099606087, 0.7676309099606087, 0.7676309099606087, 0.5117539399737391, 0.25587696998686954, 0], 'date': '2016-5-21'}, {'longitude': 139.716599, 'latitude': 35.67374849999999, 'start': 18, 'venue': '神宮球場', 'num_of_people': 0.9242298244402851, 'houry_num': [0, 0, 0, 0, 0, 0, 0, 0, 0, 0, 0, 0, 0, 0, 0, 0.3080766081467617, 0.6161532162935234, 0.9242298244402851, 0.9242298244402851, 0.9242298244402851, 0.9242298244402851, 0.6161532162935234, 0.3080766081467617, 0], 'date': '2016-5-21'}, {'longitude': 139.7016709, 'latitude': 35.7136295, 'start': 18, 'venue': 'AREA', 'num_of_people': 0.21570542254505748, 'houry_num': [0, 0, 0, 0, 0, 0, 0, 0, 0, 0, 0, 0, 0, 0, 0, 0.07190180751501916, 0.14380361503003833, 0.21570542254505748, 0.21570542254505748, 0.21570542254505748, 0.21570542254505748, 0.14380361503003833, 0.07190180751501916, 0], 'date': '2016-5-21'}, {'longitude': 139.7071813, 'latitude': 35.6483457, 'start': 18, 'venue': 'UNIT', 'num_of_people': 0.346018779072719, 'houry_num': [0, 0, 0, 0, 0, 0, 0, 0, 0, 0, 0, 0, 0, 0, 0, 0.11533959302423967, 0.23067918604847934, 0.346018779072719, 0.346018779072719, 0.346018779072719, 0.346018779072719, 0.23067918604847934, 0.11533959302423967, 0], 'date': '2016-5-21'}, {'longitude': 139.7889943, 'latitude': 35.6495585, 'start': 18, 'venue': '豊洲PIT', 'num_of_people': 0.5308170673650183, 'houry_num': [0, 0, 0, 0, 0, 0, 0, 0, 0, 0, 0, 0, 0, 0, 0, 0.17693902245500612, 0.35387804491001223, 0.5308170673650183, 0.5308170673650183, 0.5308170673650183, 0.5308170673650183, 0.35387804491001223, 0.17693902245500612, 0], 'date': '2016-5-21'}, {'longitude': 139.7936036, 'latitude': 35.6972034, 'start': 8, 'venue': '両国国技館', 'num_of_people': 0.7387934705737997, 'houry_num': [0, 0, 0, 0, 0, 0.2462644901912666, 0.4925289803825332, 0.7387934705737997, 0.7387934705737997, 0.7387934705737997, 0.7387934705737997, 0.4925289803825332, 0.2462644901912666, 0, 0, 0, 0, 0, 0, 0, 0, 0, 0, 0], 'date': '2016-5-22'}, {'longitude': 139.7080751, 'latitude': 35.729842, 'start': 14, 'venue': '東京芸術劇場', 'num_of_people': 0.45905608994789204, 'houry_num': [0, 0, 0, 0, 0, 0, 0, 0, 0, 0, 0, 0.15301869664929735, 0.3060373932985947, 0.45905608994789204, 0.45905608994789204, 0.45905608994789204, 0.45905608994789204, 0.3060373932985947, 0.15301869664929735, 0, 0, 0, 0, 0], 'date': '2016-5-22'}, {'longitude': 139.729426, 'latitude': 35.6641222, 'start': 14, 'venue': '六本木ブルーシアター', 'num_of_people': 0.32900558024239074, 'houry_num': [0, 0, 0, 0, 0, 0, 0, 0, 0, 0, 0, 0.10966852674746358, 0.21933705349492716, 0.32900558024239074, 0.32900558024239074, 0.32900558024239074, 0.32900558024239074, 0.21933705349492716, 0.10966852674746358, 0, 0, 0, 0, 0], 'date': '2016-5-22'}, {'longitude': 139.7327091, 'latitude': 35.6638057, 'start': 14, 'venue': '俳優座劇場', 'num_of_people': 0.14953509075903035, 'houry_num': [0, 0, 0, 0, 0, 0, 0, 0, 0, 0, 0, 0.04984503025301012, 0.09969006050602024, 0.14953509075903035, 0.14953509075903035, 0.14953509075903035, 0.14953509075903035, 0.09969006050602024, 0.04984503025301012, 0, 0, 0, 0, 0], 'date': '2016-5-22'}, {'longitude': 139.7658304, 'latitude': 35.69685, 'start': 14, 'venue': '全電通労働会館', 'num_of_people': 0.23289984973203356, 'houry_num': [0, 0, 0, 0, 0, 0, 0, 0, 0, 0, 0, 0.07763328324401118, 0.15526656648802237, 0.23289984973203356, 0.23289984973203356, 0.23289984973203356, 0.23289984973203356, 0.15526656648802237, 0.07763328324401118, 0, 0, 0, 0, 0], 'date': '2016-5-22'}, {'longitude': 139.7418095, 'latitude': 35.6265605, 'start': 15, 'venue': '品川インターシティホール', 'num_of_people': 0.2878108126947773, 'houry_num': [0, 0, 0, 0, 0, 0, 0, 0, 0, 0, 0, 0, 0.09593693756492577, 0.19187387512985155, 0.2878108126947773, 0.2878108126947773, 0.2878108126947773, 0.2878108126947773, 0.19187387512985155, 0.09593693756492577, 0, 0, 0, 0], 'date': '2016-5-22'}, {'longitude': 139.7889943, 'latitude': 35.6495585, 'start': 15, 'venue': '豊洲PIT', 'num_of_people': 0.5308170673650183, 'houry_num': [0, 0, 0, 0, 0, 0, 0, 0, 0, 0, 0, 0, 0.17693902245500612, 0.35387804491001223, 0.5308170673650183, 0.5308170673650183, 0.5308170673650183, 0.5308170673650183, 0.35387804491001223, 0.17693902245500612, 0, 0, 0, 0], 'date': '2016-5-22'}, {'longitude': 139.7818926, 'latitude': 35.624722, 'start': 15, 'venue': 'Zepp Tokyo(東京)', 'num_of_people': 0.5086566954383981, 'houry_num': [0, 0, 0, 0, 0, 0, 0, 0, 0, 0, 0, 0, 0.16955223181279935, 0.3391044636255987, 0.5086566954383981, 0.5086566954383981, 0.5086566954383981, 0.5086566954383981, 0.3391044636255987, 0.16955223181279935, 0, 0, 0, 0], 'date': '2016-5-22'}, {'longitude': 139.753828, 'latitude': 35.7049895, 'start': 16, 'venue': 'TOKYO DOME CITY HALL', 'num_of_people': 0.5253080401994313, 'houry_num': [0, 0, 0, 0, 0, 0, 0, 0, 0, 0, 0, 0, 0, 0.1751026800664771, 0.3502053601329542, 0.5253080401994313, 0.5253080401994313, 0.5253080401994313, 0.5253080401994313, 0.3502053601329542, 0.1751026800664771, 0, 0, 0], 'date': '2016-5-22'}, {'longitude': 139.753023, 'latitude': 35.6911892, 'start': 16, 'venue': '科学技術館 サイエンスホール', 'num_of_people': 0.20051342684135717, 'houry_num': [0, 0, 0, 0, 0, 0, 0, 0, 0, 0, 0, 0, 0, 0.06683780894711906, 0.13367561789423812, 0.20051342684135717, 0.20051342684135717, 0.20051342684135717, 0.20051342684135717, 0.13367561789423812, 0.06683780894711906, 0, 0, 0], 'date': '2016-5-22'}, {'longitude': 139.5254355, 'latitude': 35.6634009, 'start': 16, 'venue': '味の素スタジアム', 'num_of_people': 0.9843478015547451, 'houry_num': [0, 0, 0, 0, 0, 0, 0, 0, 0, 0, 0, 0, 0, 0.3281159338515817, 0.6562318677031634, 0.9843478015547451, 0.9843478015547451, 0.9843478015547451, 0.9843478015547451, 0.6562318677031634, 0.3281159338515817, 0, 0, 0], 'date': '2016-5-22'}, {'longitude': 139.7497593, 'latitude': 35.6934055, 'start': 17, 'venue': '日本武道館', 'num_of_people': 0.7767026914758637, 'houry_num': [0, 0, 0, 0, 0, 0, 0, 0, 0, 0, 0, 0, 0, 0, 0.25890089715862125, 0.5178017943172425, 0.7767026914758637, 0.7767026914758637, 0.7767026914758637, 0.7767026914758637, 0.5178017943172425, 0.25890089715862125, 0, 0], 'date': '2016-5-22'}, {'longitude': 139.7531449, 'latitude': 35.7028239, 'start': 17, 'venue': '東京ドーム', 'num_of_people': 1, 'houry_num': [0, 0, 0, 0, 0, 0, 0, 0, 0, 0, 0, 0, 0, 0, 0.3333333333333333, 0.6666666666666666, 1, 1, 1, 1, 0.6666666666666666, 0.3333333333333333, 0, 0], 'date': '2016-5-22'}, {'longitude': 139.6998092, 'latitude': 35.6669377, 'start': 17, 'venue': '国立代々木競技場 第一体育館', 'num_of_people': 0.7676309099606087, 'houry_num': [0, 0, 0, 0, 0, 0, 0, 0, 0, 0, 0, 0, 0, 0, 0.25587696998686954, 0.5117539399737391, 0.7676309099606087, 0.7676309099606087, 0.7676309099606087, 0.7676309099606087, 0.5117539399737391, 0.25587696998686954, 0, 0], 'date': '2016-5-22'}, {'longitude': 139.7596899, 'latitude': 35.672636, 'start': 17, 'venue': 'シアタークリエ', 'num_of_people': 0.26508378386691583, 'houry_num': [0, 0, 0, 0, 0, 0, 0, 0, 0, 0, 0, 0, 0, 0, 0.08836126128897194, 0.17672252257794388, 0.26508378386691583, 0.26508378386691583, 0.26508378386691583, 0.26508378386691583, 0.17672252257794388, 0.08836126128897194, 0, 0], 'date': '2016-5-22'}, {'longitude': 139.7352793, 'latitude': 35.6309486, 'start': 11, 'venue': 'グランドプリンスホテル新高輪 大宴会場 飛天', 'num_of_people': 0.49878558174041915, 'houry_num': [0, 0, 0, 0, 0, 0, 0, 0, 0.16626186058013973, 0.33252372116027945, 0.49878558174041915, 0.49878558174041915, 0.49878558174041915, 0.49878558174041915, 0.33252372116027945, 0.16626186058013973, 0, 0, 0, 0, 0, 0, 0, 0], 'date': '2016-5-23'}, {'longitude': 139.7608036, 'latitude': 35.6767439, 'start': 13, 'venue': '帝国劇場', 'num_of_people': 0.4505089601437718, 'houry_num': [0, 0, 0, 0, 0, 0, 0, 0, 0, 0, 0.15016965338125726, 0.3003393067625145, 0.4505089601437718, 0.4505089601437718, 0.4505089601437718, 0.4505089601437718, 0.3003393067625145, 0.15016965338125726, 0, 0, 0, 0, 0, 0], 'date': '2016-5-23'}, {'longitude': 139.6972798, 'latitude': 35.6869818, 'start': 15, 'venue': '全労済ホール/スペース・ゼロ', 'num_of_people': 0.25824304568075945, 'houry_num': [0, 0, 0, 0, 0, 0, 0, 0, 0, 0, 0, 0, 0.08608101522691981, 0.17216203045383963, 0.25824304568075945, 0.25824304568075945, 0.25824304568075945, 0.25824304568075945, 0.17216203045383963, 0.08608101522691981, 0, 0, 0, 0], 'date': '2016-5-23'}, {'longitude': 139.6856683, 'latitude': 35.6825909, 'start': 17, 'venue': '新国立劇場', 'num_of_people': 0.4432076736371961, 'houry_num': [0, 0, 0, 0, 0, 0, 0, 0, 0, 0, 0, 0, 0, 0, 0.1477358912123987, 0.2954717824247974, 0.4432076736371961, 0.4432076736371961, 0.4432076736371961, 0.4432076736371961, 0.2954717824247974, 0.1477358912123987, 0, 0], 'date': '2016-5-23'}, {'longitude': 139.7352793, 'latitude': 35.6309486, 'start': 17, 'venue': 'グランドプリンスホテル新高輪 大宴会場 飛天', 'num_of_people': 0.49878558174041915, 'houry_num': [0, 0, 0, 0, 0, 0, 0, 0, 0, 0, 0, 0, 0, 0, 0.16626186058013973, 0.33252372116027945, 0.49878558174041915, 0.49878558174041915, 0.49878558174041915, 0.49878558174041915, 0.33252372116027945, 0.16626186058013973, 0, 0], 'date': '2016-5-23'}, {'longitude': 139.7531449, 'latitude': 35.7028239, 'start': 18, 'venue': '東京ドーム', 'num_of_people': 1, 'houry_num': [0, 0, 0, 0, 0, 0, 0, 0, 0, 0, 0, 0, 0, 0, 0, 0.3333333333333333, 0.6666666666666666, 1, 1, 1, 1, 0.6666666666666666, 0.3333333333333333, 0], 'date': '2016-5-23'}, {'longitude': 139.6662751, 'latitude': 35.7078586, 'start': 18, 'venue': 'なかのZERO', 'num_of_people': 0.44570744423838377, 'houry_num': [0, 0, 0, 0, 0, 0, 0, 0, 0, 0, 0, 0, 0, 0, 0, 0.14856914807946126, 0.2971382961589225, 0.44570744423838377, 0.44570744423838377, 0.44570744423838377, 0.44570744423838377, 0.2971382961589225, 0.14856914807946126, 0], 'date': '2016-5-23'}, {'longitude': 139.735285, 'latitude': 35.6280212, 'start': 18, 'venue': 'クラブeX', 'num_of_people': 0.18154027775841916, 'houry_num': [0, 0, 0, 0, 0, 0, 0, 0, 0, 0, 0, 0, 0, 0, 0, 0.060513425919473056, 0.12102685183894611, 0.18154027775841916, 0.18154027775841916, 0.18154027775841916, 0.18154027775841916, 0.12102685183894611, 0.060513425919473056, 0], 'date': '2016-5-23'}, {'longitude': 139.6968789, 'latitude': 35.6665599, 'start': 18, 'venue': 'NHKホール', 'num_of_people': 0.5638857712105817, 'houry_num': [0, 0, 0, 0, 0, 0, 0, 0, 0, 0, 0, 0, 0, 0, 0, 0.18796192373686058, 0.37592384747372115, 0.5638857712105817, 0.5638857712105817, 0.5638857712105817, 0.5638857712105817, 0.37592384747372115, 0.18796192373686058, 0], 'date': '2016-5-23'}, {'longitude': 139.7413971, 'latitude': 35.66663339999999, 'start': 19, 'venue': 'サントリーホール', 'num_of_people': 0.4599516558283174, 'houry_num': [0, 0, 0, 0, 0, 0, 0, 0, 0, 0, 0, 0, 0, 0, 0, 0, 0.15331721860943912, 0.30663443721887823, 0.4599516558283174, 0.4599516558283174, 0.4599516558283174, 0.4599516558283174, 0.30663443721887823, 0.15331721860943912], 'date': '2016-5-23'}, {'longitude': 139.6953404, 'latitude': 35.6585025, 'start': 19, 'venue': 'TSUTAYA O-WEST', 'num_of_people': 0.2626540200997158, 'houry_num': [0, 0, 0, 0, 0, 0, 0, 0, 0, 0, 0, 0, 0, 0, 0, 0, 0.0875513400332386, 0.1751026800664772, 0.2626540200997158, 0.2626540200997158, 0.2626540200997158, 0.2626540200997158, 0.1751026800664772, 0.0875513400332386], 'date': '2016-5-23'}, {'longitude': 139.7327091, 'latitude': 35.6638057, 'start': 19, 'venue': '俳優座劇場', 'num_of_people': 0.14953509075903035, 'houry_num': [0, 0, 0, 0, 0, 0, 0, 0, 0, 0, 0, 0, 0, 0, 0, 0, 0.04984503025301012, 0.09969006050602024, 0.14953509075903035, 0.14953509075903035, 0.14953509075903035, 0.14953509075903035, 0.09969006050602024, 0.04984503025301012], 'date': '2016-5-23'}, {'longitude': 139.6868265, 'latitude': 35.683002, 'start': 19, 'venue': '東京オペラシティ', 'num_of_people': 0.42595325890372926, 'houry_num': [0, 0, 0, 0, 0, 0, 0, 0, 0, 0, 0, 0, 0, 0, 0, 0, 0.14198441963457642, 0.28396883926915284, 0.42595325890372926, 0.42595325890372926, 0.42595325890372926, 0.42595325890372926, 0.28396883926915284, 0.14198441963457642], 'date': '2016-5-23'}, {'longitude': 139.7752986, 'latitude': 35.714415, 'start': 19, 'venue': '東京文化会館', 'num_of_people': 0.5228967709443131, 'houry_num': [0, 0, 0, 0, 0, 0, 0, 0, 0, 0, 0, 0, 0, 0, 0, 0, 0.17429892364810437, 0.34859784729620874, 0.5228967709443131, 0.5228967709443131, 0.5228967709443131, 0.5228967709443131, 0.34859784729620874, 0.17429892364810437], 'date': '2016-5-23'}, {'longitude': 139.7271569, 'latitude': 35.6611948, 'start': 19, 'venue': 'EXシアター六本木(EX THEATER ROPPONGI)', 'num_of_people': 0.43697245679567354, 'houry_num': [0, 0, 0, 0, 0, 0, 0, 0, 0, 0, 0, 0, 0, 0, 0, 0, 0.14565748559855785, 0.2913149711971157, 0.43697245679567354, 0.43697245679567354, 0.43697245679567354, 0.43697245679567354, 0.2913149711971157, 0.14565748559855785], 'date': '2016-5-23'}, {'longitude': 139.7608036, 'latitude': 35.6767439, 'start': 13, 'venue': '帝国劇場', 'num_of_people': 0.4505089601437718, 'houry_num': [0, 0, 0, 0, 0, 0, 0, 0, 0, 0, 0.15016965338125726, 0.3003393067625145, 0.4505089601437718, 0.4505089601437718, 0.4505089601437718, 0.4505089601437718, 0.3003393067625145, 0.15016965338125726, 0, 0, 0, 0, 0, 0], 'date': '2016-5-24'}, {'longitude': 139.7360778, 'latitude': 35.6757238, 'start': 13, 'venue': '赤坂ACTシアター', 'num_of_people': 0.39182098673647703, 'houry_num': [0, 0, 0, 0, 0, 0, 0, 0, 0, 0, 0.13060699557882569, 0.26121399115765137, 0.39182098673647703, 0.39182098673647703, 0.39182098673647703, 0.39182098673647703, 0.26121399115765137, 0.13060699557882569, 0, 0, 0, 0, 0, 0], 'date': '2016-5-24'}, {'longitude': 139.7003548, 'latitude': 35.7047637, 'start': 14, 'venue': '東京グローブ座', 'num_of_people': 0.2885087301592708, 'houry_num': [0, 0, 0, 0, 0, 0, 0, 0, 0, 0, 0, 0.09616957671975694, 0.19233915343951388, 0.2885087301592708, 0.2885087301592708, 0.2885087301592708, 0.2885087301592708, 0.19233915343951388, 0.09616957671975694, 0, 0, 0, 0, 0], 'date': '2016-5-24'}, {'longitude': 139.6683205, 'latitude': 35.6615874, 'start': 14, 'venue': '本多劇場', 'num_of_people': 0.19066947121311845, 'houry_num': [0, 0, 0, 0, 0, 0, 0, 0, 0, 0, 0, 0.06355649040437282, 0.12711298080874564, 0.19066947121311845, 0.19066947121311845, 0.19066947121311845, 0.19066947121311845, 0.12711298080874564, 0.06355649040437282, 0, 0, 0, 0, 0], 'date': '2016-5-24'}, {'longitude': 139.669046, 'latitude': 35.6436557, 'start': 14, 'venue': '世田谷パブリックシアター', 'num_of_people': 0.2626540200997158, 'houry_num': [0, 0, 0, 0, 0, 0, 0, 0, 0, 0, 0, 0.0875513400332386, 0.1751026800664772, 0.2626540200997158, 0.2626540200997158, 0.2626540200997158, 0.2626540200997158, 0.1751026800664772, 0.0875513400332386, 0, 0, 0, 0, 0], 'date': '2016-5-24'}, {'longitude': 139.7644669, 'latitude': 35.6871844, 'start': 14, 'venue': 'よみうり大手町ホール', 'num_of_people': 0.23322591601111575, 'houry_num': [0, 0, 0, 0, 0, 0, 0, 0, 0, 0, 0, 0.07774197200370525, 0.1554839440074105, 0.23322591601111575, 0.23322591601111575, 0.23322591601111575, 0.23322591601111575, 0.1554839440074105, 0.07774197200370525, 0, 0, 0, 0, 0], 'date': '2016-5-24'}, {'longitude': 139.7608036, 'latitude': 35.6767439, 'start': 18, 'venue': '帝国劇場', 'num_of_people': 0.4505089601437718, 'houry_num': [0, 0, 0, 0, 0, 0, 0, 0, 0, 0, 0, 0, 0, 0, 0, 0.15016965338125726, 0.3003393067625145, 0.4505089601437718, 0.4505089601437718, 0.4505089601437718, 0.4505089601437718, 0.3003393067625145, 0.15016965338125726, 0], 'date': '2016-5-24'}, {'longitude': 139.7669618, 'latitude': 35.6668813, 'start': 18, 'venue': '新橋演舞場', 'num_of_people': 0.4041614539441325, 'houry_num': [0, 0, 0, 0, 0, 0, 0, 0, 0, 0, 0, 0, 0, 0, 0, 0.13472048464804418, 0.26944096929608835, 0.4041614539441325, 0.4041614539441325, 0.4041614539441325, 0.4041614539441325, 0.26944096929608835, 0.13472048464804418, 0], 'date': '2016-5-24'}, {'longitude': 139.716599, 'latitude': 35.67374849999999, 'start': 18, 'venue': '神宮球場', 'num_of_people': 0.9242298244402851, 'houry_num': [0, 0, 0, 0, 0, 0, 0, 0, 0, 0, 0, 0, 0, 0, 0, 0.3080766081467617, 0.6161532162935234, 0.9242298244402851, 0.9242298244402851, 0.9242298244402851, 0.9242298244402851, 0.6161532162935234, 0.3080766081467617, 0], 'date': '2016-5-24'}, {'longitude': 139.7596899, 'latitude': 35.672636, 'start': 18, 'venue': 'シアタークリエ', 'num_of_people': 0.26508378386691583, 'houry_num': [0, 0, 0, 0, 0, 0, 0, 0, 0, 0, 0, 0, 0, 0, 0, 0.08836126128897194, 0.17672252257794388, 0.26508378386691583, 0.26508378386691583, 0.26508378386691583, 0.26508378386691583, 0.17672252257794388, 0.08836126128897194, 0], 'date': '2016-5-24'}, {'longitude': 139.7623483, 'latitude': 35.6650287, 'start': 18, 'venue': '電通四季劇場[海]', 'num_of_people': 0.37793451903320624, 'houry_num': [0, 0, 0, 0, 0, 0, 0, 0, 0, 0, 0, 0, 0, 0, 0, 0.12597817301106876, 0.2519563460221375, 0.37793451903320624, 0.37793451903320624, 0.37793451903320624, 0.37793451903320624, 0.2519563460221375, 0.12597817301106876, 0], 'date': '2016-5-24'}, {'longitude': 139.7360778, 'latitude': 35.6757238, 'start': 13, 'venue': '赤坂ACTシアター', 'num_of_people': 0.39182098673647703, 'houry_num': [0, 0, 0, 0, 0, 0, 0, 0, 0, 0, 0.13060699557882569, 0.26121399115765137, 0.39182098673647703, 0.39182098673647703, 0.39182098673647703, 0.39182098673647703, 0.26121399115765137, 0.13060699557882569, 0, 0, 0, 0, 0, 0], 'date': '2016-5-25'}, {'longitude': 139.7596899, 'latitude': 35.672636, 'start': 14, 'venue': 'シアタークリエ', 'num_of_people': 0.26508378386691583, 'houry_num': [0, 0, 0, 0, 0, 0, 0, 0, 0, 0, 0, 0.08836126128897194, 0.17672252257794388, 0.26508378386691583, 0.26508378386691583, 0.26508378386691583, 0.26508378386691583, 0.17672252257794388, 0.08836126128897194, 0, 0, 0, 0, 0], 'date': '2016-5-25'}, {'longitude': 139.69904, 'latitude': 35.6605134, 'start': 14, 'venue': 'PARCO劇場(パルコ劇場)', 'num_of_people': 0.21858119948517246, 'houry_num': [0, 0, 0, 0, 0, 0, 0, 0, 0, 0, 0, 0.07286039982839082, 0.14572079965678164, 0.21858119948517246, 0.21858119948517246, 0.21858119948517246, 0.21858119948517246, 0.14572079965678164, 0.07286039982839082, 0, 0, 0, 0, 0], 'date': '2016-5-25'}, {'longitude': 139.7680533, 'latitude': 35.6697366, 'start': 16, 'venue': '歌舞伎座', 'num_of_people': 0.44790747915245005, 'houry_num': [0, 0, 0, 0, 0, 0, 0, 0, 0, 0, 0, 0, 0, 0.1493024930508167, 0.2986049861016334, 0.44790747915245005, 0.44790747915245005, 0.44790747915245005, 0.44790747915245005, 0.2986049861016334, 0.1493024930508167, 0, 0, 0], 'date': '2016-5-25'}, {'longitude': 139.716599, 'latitude': 35.67374849999999, 'start': 18, 'venue': '神宮球場', 'num_of_people': 0.9242298244402851, 'houry_num': [0, 0, 0, 0, 0, 0, 0, 0, 0, 0, 0, 0, 0, 0, 0, 0.3080766081467617, 0.6161532162935234, 0.9242298244402851, 0.9242298244402851, 0.9242298244402851, 0.9242298244402851, 0.6161532162935234, 0.3080766081467617, 0], 'date': '2016-5-25'}, {'longitude': 139.7596899, 'latitude': 35.672636, 'start': 18, 'venue': 'シアタークリエ', 'num_of_people': 0.26508378386691583, 'houry_num': [0, 0, 0, 0, 0, 0, 0, 0, 0, 0, 0, 0, 0, 0, 0, 0.08836126128897194, 0.17672252257794388, 0.26508378386691583, 0.26508378386691583, 0.26508378386691583, 0.26508378386691583, 0.17672252257794388, 0.08836126128897194, 0], 'date': '2016-5-25'}, {'longitude': 139.7080751, 'latitude': 35.729842, 'start': 18, 'venue': '東京芸術劇場', 'num_of_people': 0.45905608994789204, 'houry_num': [0, 0, 0, 0, 0, 0, 0, 0, 0, 0, 0, 0, 0, 0, 0, 0.15301869664929735, 0.3060373932985947, 0.45905608994789204, 0.45905608994789204, 0.45905608994789204, 0.45905608994789204, 0.3060373932985947, 0.15301869664929735, 0], 'date': '2016-5-25'}, {'longitude': 139.7623483, 'latitude': 35.6650287, 'start': 18, 'venue': '電通四季劇場[海]', 'num_of_people': 0.37793451903320624, 'houry_num': [0, 0, 0, 0, 0, 0, 0, 0, 0, 0, 0, 0, 0, 0, 0, 0.12597817301106876, 0.2519563460221375, 0.37793451903320624, 0.37793451903320624, 0.37793451903320624, 0.37793451903320624, 0.2519563460221375, 0.12597817301106876, 0], 'date': '2016-5-25'}, {'longitude': 139.6998092, 'latitude': 35.6669377, 'start': 18, 'venue': '国立代々木競技場 第一体育館', 'num_of_people': 0.7676309099606087, 'houry_num': [0, 0, 0, 0, 0, 0, 0, 0, 0, 0, 0, 0, 0, 0, 0, 0.25587696998686954, 0.5117539399737391, 0.7676309099606087, 0.7676309099606087, 0.7676309099606087, 0.7676309099606087, 0.5117539399737391, 0.25587696998686954, 0], 'date': '2016-5-25'}, {'longitude': 139.7644669, 'latitude': 35.6871844, 'start': 18, 'venue': 'よみうり大手町ホール', 'num_of_people': 0.23322591601111575, 'houry_num': [0, 0, 0, 0, 0, 0, 0, 0, 0, 0, 0, 0, 0, 0, 0, 0.07774197200370525, 0.1554839440074105, 0.23322591601111575, 0.23322591601111575, 0.23322591601111575, 0.23322591601111575, 0.1554839440074105, 0.07774197200370525, 0], 'date': '2016-5-25'}, {'longitude': 139.6646854, 'latitude': 35.707618, 'start': 18, 'venue': '中野サンプラザ', 'num_of_people': 0.4763158151725067, 'houry_num': [0, 0, 0, 0, 0, 0, 0, 0, 0, 0, 0, 0, 0, 0, 0, 0.15877193839083556, 0.3175438767816711, 0.4763158151725067, 0.4763158151725067, 0.4763158151725067, 0.4763158151725067, 0.3175438767816711, 0.15877193839083556, 0], 'date': '2016-5-25'}, {'longitude': 139.7127357, 'latitude': 35.7291034, 'start': 18, 'venue': '池袋EDGE', 'num_of_people': 0.11978092039134816, 'houry_num': [0, 0, 0, 0, 0, 0, 0, 0, 0, 0, 0, 0, 0, 0, 0, 0.03992697346378272, 0.07985394692756544, 0.11978092039134816, 0.11978092039134816, 0.11978092039134816, 0.11978092039134816, 0.07985394692756544, 0.03992697346378272, 0], 'date': '2016-5-25'}, {'longitude': 139.7057766, 'latitude': 35.6918655, 'start': 18, 'venue': 'シネマート新宿', 'num_of_people': 0.16754346536091944, 'houry_num': [0, 0, 0, 0, 0, 0, 0, 0, 0, 0, 0, 0, 0, 0, 0, 0.055847821786973145, 0.11169564357394629, 0.16754346536091944, 0.16754346536091944, 0.16754346536091944, 0.16754346536091944, 0.11169564357394629, 0.055847821786973145, 0], 'date': '2016-5-25'}, {'longitude': 139.7432769, 'latitude': 35.6815595, 'start': 18, 'venue': '国立演芸場', 'num_of_people': 0.14953509075903035, 'houry_num': [0, 0, 0, 0, 0, 0, 0, 0, 0, 0, 0, 0, 0, 0, 0, 0.04984503025301012, 0.09969006050602024, 0.14953509075903035, 0.14953509075903035, 0.14953509075903035, 0.14953509075903035, 0.09969006050602024, 0.04984503025301012, 0], 'date': '2016-5-25'}, {'longitude': 139.7413971, 'latitude': 35.66663339999999, 'start': 19, 'venue': 'サントリーホール', 'num_of_people': 0.4599516558283174, 'houry_num': [0, 0, 0, 0, 0, 0, 0, 0, 0, 0, 0, 0, 0, 0, 0, 0, 0.15331721860943912, 0.30663443721887823, 0.4599516558283174, 0.4599516558283174, 0.4599516558283174, 0.4599516558283174, 0.30663443721887823, 0.15331721860943912], 'date': '2016-5-25'}, {'longitude': 139.7271569, 'latitude': 35.6611948, 'start': 19, 'venue': 'EXシアター六本木(EX THEATER ROPPONGI)', 'num_of_people': 0.43697245679567354, 'houry_num': [0, 0, 0, 0, 0, 0, 0, 0, 0, 0, 0, 0, 0, 0, 0, 0, 0.14565748559855785, 0.2913149711971157, 0.43697245679567354, 0.43697245679567354, 0.43697245679567354, 0.43697245679567354, 0.2913149711971157, 0.14565748559855785], 'date': '2016-5-25'}, {'longitude': 139.7094319, 'latitude': 35.6954929, 'start': 19, 'venue': '新宿文化センター', 'num_of_people': 0.4421245095830762, 'houry_num': [0, 0, 0, 0, 0, 0, 0, 0, 0, 0, 0, 0, 0, 0, 0, 0, 0.14737483652769207, 0.29474967305538413, 0.4421245095830762, 0.4421245095830762, 0.4421245095830762, 0.4421245095830762, 0.29474967305538413, 0.14737483652769207], 'date': '2016-5-25'}, {'longitude': 139.7071813, 'latitude': 35.6483457, 'start': 19, 'venue': 'UNIT', 'num_of_people': 0.346018779072719, 'houry_num': [0, 0, 0, 0, 0, 0, 0, 0, 0, 0, 0, 0, 0, 0, 0, 0, 0.11533959302423967, 0.23067918604847934, 0.346018779072719, 0.346018779072719, 0.346018779072719, 0.346018779072719, 0.23067918604847934, 0.11533959302423967], 'date': '2016-5-25'}, {'longitude': 139.6975651, 'latitude': 35.6609856, 'start': 19, 'venue': '渋谷クラブクアトロ(CLUB QUATTRO)', 'num_of_people': 0.309602617654374, 'houry_num': [0, 0, 0, 0, 0, 0, 0, 0, 0, 0, 0, 0, 0, 0, 0, 0, 0.103200872551458, 0.206401745102916, 0.309602617654374, 0.309602617654374, 0.309602617654374, 0.309602617654374, 0.206401745102916, 0.103200872551458], 'date': '2016-5-25'}, {'longitude': 139.6817551, 'latitude': 35.67122, 'start': 19, 'venue': 'ムジカーザ', 'num_of_people': 0, 'houry_num': [0, 0, 0, 0, 0, 0, 0, 0, 0, 0, 0, 0, 0, 0, 0, 0, 0.0, 0.0, 0, 0, 0, 0, 0.0, 0.0], 'date': '2016-5-25'}, {'longitude': 139.6987557, 'latitude': 35.6615117, 'start': 19, 'venue': 'Shibuya WWW', 'num_of_people': 0.21570542254505748, 'houry_num': [0, 0, 0, 0, 0, 0, 0, 0, 0, 0, 0, 0, 0, 0, 0, 0, 0.07190180751501916, 0.14380361503003833, 0.21570542254505748, 0.21570542254505748, 0.21570542254505748, 0.21570542254505748, 0.14380361503003833, 0.07190180751501916], 'date': '2016-5-25'}, {'longitude': 139.6694646, 'latitude': 35.6614799, 'start': 20, 'venue': 'SHELTER', 'num_of_people': 0.11978092039134816, 'houry_num': [0.03992697346378272, 0, 0, 0, 0, 0, 0, 0, 0, 0, 0, 0, 0, 0, 0, 0, 0, 0.03992697346378272, 0.07985394692756544, 0.11978092039134816, 0.11978092039134816, 0.11978092039134816, 0.11978092039134816, 0.07985394692756544], 'date': '2016-5-25'}, {'longitude': 139.7669618, 'latitude': 35.6668813, 'start': 11, 'venue': '新橋演舞場', 'num_of_people': 0.4041614539441325, 'houry_num': [0, 0, 0, 0, 0, 0, 0, 0, 0.13472048464804418, 0.26944096929608835, 0.4041614539441325, 0.4041614539441325, 0.4041614539441325, 0.4041614539441325, 0.26944096929608835, 0.13472048464804418, 0, 0, 0, 0, 0, 0, 0, 0], 'date': '2016-5-26'}, {'longitude': 139.7623483, 'latitude': 35.6650287, 'start': 13, 'venue': '電通四季劇場[海]', 'num_of_people': 0.37793451903320624, 'houry_num': [0, 0, 0, 0, 0, 0, 0, 0, 0, 0, 0.12597817301106876, 0.2519563460221375, 0.37793451903320624, 0.37793451903320624, 0.37793451903320624, 0.37793451903320624, 0.2519563460221375, 0.12597817301106876, 0, 0, 0, 0, 0, 0], 'date': '2016-5-26'}, {'longitude': 139.6856683, 'latitude': 35.6825909, 'start': 14, 'venue': '新国立劇場', 'num_of_people': 0.4432076736371961, 'houry_num': [0, 0, 0, 0, 0, 0, 0, 0, 0, 0, 0, 0.1477358912123987, 0.2954717824247974, 0.4432076736371961, 0.4432076736371961, 0.4432076736371961, 0.4432076736371961, 0.2954717824247974, 0.1477358912123987, 0, 0, 0, 0, 0], 'date': '2016-5-26'}, {'longitude': 139.7596899, 'latitude': 35.672636, 'start': 14, 'venue': 'シアタークリエ', 'num_of_people': 0.26508378386691583, 'houry_num': [0, 0, 0, 0, 0, 0, 0, 0, 0, 0, 0, 0.08836126128897194, 0.17672252257794388, 0.26508378386691583, 0.26508378386691583, 0.26508378386691583, 0.26508378386691583, 0.17672252257794388, 0.08836126128897194, 0, 0, 0, 0, 0], 'date': '2016-5-26'}, {'longitude': 139.7608036, 'latitude': 35.6767439, 'start': 18, 'venue': '帝国劇場', 'num_of_people': 0.4505089601437718, 'houry_num': [0, 0, 0, 0, 0, 0, 0, 0, 0, 0, 0, 0, 0, 0, 0, 0.15016965338125726, 0.3003393067625145, 0.4505089601437718, 0.4505089601437718, 0.4505089601437718, 0.4505089601437718, 0.3003393067625145, 0.15016965338125726, 0], 'date': '2016-5-26'}, {'longitude': 139.7669618, 'latitude': 35.6668813, 'start': 18, 'venue': '新橋演舞場', 'num_of_people': 0.4041614539441325, 'houry_num': [0, 0, 0, 0, 0, 0, 0, 0, 0, 0, 0, 0, 0, 0, 0, 0.13472048464804418, 0.26944096929608835, 0.4041614539441325, 0.4041614539441325, 0.4041614539441325, 0.4041614539441325, 0.26944096929608835, 0.13472048464804418, 0], 'date': '2016-5-26'}, {'longitude': 139.716599, 'latitude': 35.67374849999999, 'start': 18, 'venue': '神宮球場', 'num_of_people': 0.9242298244402851, 'houry_num': [0, 0, 0, 0, 0, 0, 0, 0, 0, 0, 0, 0, 0, 0, 0, 0.3080766081467617, 0.6161532162935234, 0.9242298244402851, 0.9242298244402851, 0.9242298244402851, 0.9242298244402851, 0.6161532162935234, 0.3080766081467617, 0], 'date': '2016-5-26'}, {'longitude': 139.7596899, 'latitude': 35.672636, 'start': 18, 'venue': 'シアタークリエ', 'num_of_people': 0.26508378386691583, 'houry_num': [0, 0, 0, 0, 0, 0, 0, 0, 0, 0, 0, 0, 0, 0, 0, 0.08836126128897194, 0.17672252257794388, 0.26508378386691583, 0.26508378386691583, 0.26508378386691583, 0.26508378386691583, 0.17672252257794388, 0.08836126128897194, 0], 'date': '2016-5-26'}, {'longitude': 139.7080751, 'latitude': 35.729842, 'start': 18, 'venue': '東京芸術劇場', 'num_of_people': 0.45905608994789204, 'houry_num': [0, 0, 0, 0, 0, 0, 0, 0, 0, 0, 0, 0, 0, 0, 0, 0.15301869664929735, 0.3060373932985947, 0.45905608994789204, 0.45905608994789204, 0.45905608994789204, 0.45905608994789204, 0.3060373932985947, 0.15301869664929735, 0], 'date': '2016-5-26'}, {'longitude': 139.7333554, 'latitude': 35.6082652, 'start': 18, 'venue': '積水ハウスミュージカルシアター 四季劇場[夏]', 'num_of_people': 0.3757729494404012, 'houry_num': [0, 0, 0, 0, 0, 0, 0, 0, 0, 0, 0, 0, 0, 0, 0, 0.12525764981346707, 0.25051529962693414, 0.3757729494404012, 0.3757729494404012, 0.3757729494404012, 0.3757729494404012, 0.25051529962693414, 0.12525764981346707, 0], 'date': '2016-5-26'}, {'longitude': 139.7644669, 'latitude': 35.6871844, 'start': 18, 'venue': 'よみうり大手町ホール', 'num_of_people': 0.23322591601111575, 'houry_num': [0, 0, 0, 0, 0, 0, 0, 0, 0, 0, 0, 0, 0, 0, 0, 0.07774197200370525, 0.1554839440074105, 0.23322591601111575, 0.23322591601111575, 0.23322591601111575, 0.23322591601111575, 0.1554839440074105, 0.07774197200370525, 0], 'date': '2016-5-26'}, {'longitude': 139.7360778, 'latitude': 35.6757238, 'start': 18, 'venue': '赤坂ACTシアター', 'num_of_people': 0.39182098673647703, 'houry_num': [0, 0, 0, 0, 0, 0, 0, 0, 0, 0, 0, 0, 0, 0, 0, 0.13060699557882569, 0.26121399115765137, 0.39182098673647703, 0.39182098673647703, 0.39182098673647703, 0.39182098673647703, 0.26121399115765137, 0.13060699557882569, 0], 'date': '2016-5-26'}, {'longitude': 139.6800387, 'latitude': 35.6678203, 'start': 18, 'venue': '古賀政男音楽博物館 けやきホール', 'num_of_people': 0.09891901036016748, 'houry_num': [0, 0, 0, 0, 0, 0, 0, 0, 0, 0, 0, 0, 0, 0, 0, 0.03297300345338916, 0.06594600690677832, 0.09891901036016748, 0.09891901036016748, 0.09891901036016748, 0.09891901036016748, 0.06594600690677832, 0.03297300345338916, 0], 'date': '2016-5-26'}, {'longitude': 139.6599964, 'latitude': 35.6627795, 'start': 19, 'venue': 'LIVE HOUSE FEVER', 'num_of_people': 0.14953509075903035, 'houry_num': [0, 0, 0, 0, 0, 0, 0, 0, 0, 0, 0, 0, 0, 0, 0, 0, 0.04984503025301012, 0.09969006050602024, 0.14953509075903035, 0.14953509075903035, 0.14953509075903035, 0.14953509075903035, 0.09969006050602024, 0.04984503025301012], 'date': '2016-5-26'}, {'longitude': 139.669046, 'latitude': 35.6436557, 'start': 19, 'venue': '世田谷パブリックシアター', 'num_of_people': 0.2626540200997158, 'houry_num': [0, 0, 0, 0, 0, 0, 0, 0, 0, 0, 0, 0, 0, 0, 0, 0, 0.0875513400332386, 0.1751026800664772, 0.2626540200997158, 0.2626540200997158, 0.2626540200997158, 0.2626540200997158, 0.1751026800664772, 0.0875513400332386], 'date': '2016-5-26'}, {'longitude': 139.7327091, 'latitude': 35.6638057, 'start': 19, 'venue': '俳優座劇場', 'num_of_people': 0.14953509075903035, 'houry_num': [0, 0, 0, 0, 0, 0, 0, 0, 0, 0, 0, 0, 0, 0, 0, 0, 0.04984503025301012, 0.09969006050602024, 0.14953509075903035, 0.14953509075903035, 0.14953509075903035, 0.14953509075903035, 0.09969006050602024, 0.04984503025301012], 'date': '2016-5-26'}, {'longitude': 139.69904, 'latitude': 35.6605134, 'start': 19, 'venue': 'PARCO劇場(パルコ劇場)', 'num_of_people': 0.21858119948517246, 'houry_num': [0, 0, 0, 0, 0, 0, 0, 0, 0, 0, 0, 0, 0, 0, 0, 0, 0.07286039982839082, 0.14572079965678164, 0.21858119948517246, 0.21858119948517246, 0.21858119948517246, 0.21858119948517246, 0.14572079965678164, 0.07286039982839082], 'date': '2016-5-26'}, {'longitude': 139.6486577, 'latitude': 35.7423364, 'start': 19, 'venue': 'ユナイテッド・シネマとしまえん', 'num_of_people': 0.18939615303653307, 'houry_num': [0, 0, 0, 0, 0, 0, 0, 0, 0, 0, 0, 0, 0, 0, 0, 0, 0.06313205101217768, 0.12626410202435537, 0.18939615303653307, 0.18939615303653307, 0.18939615303653307, 0.18939615303653307, 0.12626410202435537, 0.06313205101217768], 'date': '2016-5-26'}, {'longitude': 139.7669618, 'latitude': 35.6668813, 'start': 11, 'venue': '新橋演舞場', 'num_of_people': 0.4041614539441325, 'houry_num': [0, 0, 0, 0, 0, 0, 0, 0, 0.13472048464804418, 0.26944096929608835, 0.4041614539441325, 0.4041614539441325, 0.4041614539441325, 0.4041614539441325, 0.26944096929608835, 0.13472048464804418, 0, 0, 0, 0, 0, 0, 0, 0], 'date': '2016-5-27'}, {'longitude': 139.7873211, 'latitude': 35.6877545, 'start': 11, 'venue': '明治座', 'num_of_people': 0.39715625326457493, 'houry_num': [0, 0, 0, 0, 0, 0, 0, 0, 0.13238541775485832, 0.26477083550971664, 0.39715625326457493, 0.39715625326457493, 0.39715625326457493, 0.39715625326457493, 0.26477083550971664, 0.13238541775485832, 0, 0, 0, 0, 0, 0, 0, 0], 'date': '2016-5-27'}, {'longitude': 139.7608036, 'latitude': 35.6767439, 'start': 13, 'venue': '帝国劇場', 'num_of_people': 0.4505089601437718, 'houry_num': [0, 0, 0, 0, 0, 0, 0, 0, 0, 0, 0.15016965338125726, 0.3003393067625145, 0.4505089601437718, 0.4505089601437718, 0.4505089601437718, 0.4505089601437718, 0.3003393067625145, 0.15016965338125726, 0, 0, 0, 0, 0, 0], 'date': '2016-5-27'}, {'longitude': 139.69904, 'latitude': 35.6605134, 'start': 13, 'venue': 'PARCO劇場(パルコ劇場)', 'num_of_people': 0.21858119948517246, 'houry_num': [0, 0, 0, 0, 0, 0, 0, 0, 0, 0, 0.07286039982839082, 0.14572079965678164, 0.21858119948517246, 0.21858119948517246, 0.21858119948517246, 0.21858119948517246, 0.14572079965678164, 0.07286039982839082, 0, 0, 0, 0, 0, 0], 'date': '2016-5-27'}, {'longitude': 139.6540083, 'latitude': 35.7059012, 'start': 14, 'venue': '座・高円寺1', 'num_of_people': 0.11175326347673473, 'houry_num': [0, 0, 0, 0, 0, 0, 0, 0, 0, 0, 0, 0.03725108782557824, 0.07450217565115648, 0.11175326347673473, 0.11175326347673473, 0.11175326347673473, 0.11175326347673473, 0.07450217565115648, 0.03725108782557824, 0, 0, 0, 0, 0], 'date': '2016-5-27'}, {'longitude': 139.7360778, 'latitude': 35.6757238, 'start': 14, 'venue': '赤坂ACTシアター', 'num_of_people': 0.39182098673647703, 'houry_num': [0, 0, 0, 0, 0, 0, 0, 0, 0, 0, 0, 0.13060699557882569, 0.26121399115765137, 0.39182098673647703, 0.39182098673647703, 0.39182098673647703, 0.39182098673647703, 0.26121399115765137, 0.13060699557882569, 0, 0, 0, 0, 0], 'date': '2016-5-27'}, {'longitude': 139.7531449, 'latitude': 35.7028239, 'start': 18, 'venue': '東京ドーム', 'num_of_people': 1, 'houry_num': [0, 0, 0, 0, 0, 0, 0, 0, 0, 0, 0, 0, 0, 0, 0, 0.3333333333333333, 0.6666666666666666, 1, 1, 1, 1, 0.6666666666666666, 0.3333333333333333, 0], 'date': '2016-5-27'}, {'longitude': 139.7596899, 'latitude': 35.672636, 'start': 18, 'venue': 'シアタークリエ', 'num_of_people': 0.26508378386691583, 'houry_num': [0, 0, 0, 0, 0, 0, 0, 0, 0, 0, 0, 0, 0, 0, 0, 0.08836126128897194, 0.17672252257794388, 0.26508378386691583, 0.26508378386691583, 0.26508378386691583, 0.26508378386691583, 0.17672252257794388, 0.08836126128897194, 0], 'date': '2016-5-27'}, {'longitude': 139.6646854, 'latitude': 35.707618, 'start': 18, 'venue': '中野サンプラザ', 'num_of_people': 0.4763158151725067, 'houry_num': [0, 0, 0, 0, 0, 0, 0, 0, 0, 0, 0, 0, 0, 0, 0, 0.15877193839083556, 0.3175438767816711, 0.4763158151725067, 0.4763158151725067, 0.4763158151725067, 0.4763158151725067, 0.3175438767816711, 0.15877193839083556, 0], 'date': '2016-5-27'}, {'longitude': 139.7752986, 'latitude': 35.714415, 'start': 18, 'venue': '東京文化会館', 'num_of_people': 0.5228967709443131, 'houry_num': [0, 0, 0, 0, 0, 0, 0, 0, 0, 0, 0, 0, 0, 0, 0, 0.17429892364810437, 0.34859784729620874, 0.5228967709443131, 0.5228967709443131, 0.5228967709443131, 0.5228967709443131, 0.34859784729620874, 0.17429892364810437, 0], 'date': '2016-5-27'}, {'longitude': 139.6968789, 'latitude': 35.6665599, 'start': 18, 'venue': 'NHKホール', 'num_of_people': 0.5638857712105817, 'houry_num': [0, 0, 0, 0, 0, 0, 0, 0, 0, 0, 0, 0, 0, 0, 0, 0.18796192373686058, 0.37592384747372115, 0.5638857712105817, 0.5638857712105817, 0.5638857712105817, 0.5638857712105817, 0.37592384747372115, 0.18796192373686058, 0], 'date': '2016-5-27'}, {'longitude': 139.7644669, 'latitude': 35.6871844, 'start': 18, 'venue': 'よみうり大手町ホール', 'num_of_people': 0.23322591601111575, 'houry_num': [0, 0, 0, 0, 0, 0, 0, 0, 0, 0, 0, 0, 0, 0, 0, 0.07774197200370525, 0.1554839440074105, 0.23322591601111575, 0.23322591601111575, 0.23322591601111575, 0.23322591601111575, 0.1554839440074105, 0.07774197200370525, 0], 'date': '2016-5-27'}, {'longitude': 139.7497593, 'latitude': 35.6934055, 'start': 18, 'venue': '日本武道館', 'num_of_people': 0.7767026914758637, 'houry_num': [0, 0, 0, 0, 0, 0, 0, 0, 0, 0, 0, 0, 0, 0, 0, 0.25890089715862125, 0.5178017943172425, 0.7767026914758637, 0.7767026914758637, 0.7767026914758637, 0.7767026914758637, 0.5178017943172425, 0.25890089715862125, 0], 'date': '2016-5-27'}, {'longitude': 139.6998092, 'latitude': 35.6669377, 'start': 18, 'venue': '国立代々木競技場 第一体育館', 'num_of_people': 0.7676309099606087, 'houry_num': [0, 0, 0, 0, 0, 0, 0, 0, 0, 0, 0, 0, 0, 0, 0, 0.25587696998686954, 0.5117539399737391, 0.7676309099606087, 0.7676309099606087, 0.7676309099606087, 0.7676309099606087, 0.5117539399737391, 0.25587696998686954, 0], 'date': '2016-5-27'}, {'longitude': 139.8253126, 'latitude': 35.6422295, 'start': 18, 'venue': '新木場STUDIO COAST', 'num_of_people': 0.48902781891255404, 'houry_num': [0, 0, 0, 0, 0, 0, 0, 0, 0, 0, 0, 0, 0, 0, 0, 0.16300927297085135, 0.3260185459417027, 0.48902781891255404, 0.48902781891255404, 0.48902781891255404, 0.48902781891255404, 0.3260185459417027, 0.16300927297085135, 0], 'date': '2016-5-27'}, {'longitude': 139.6995259, 'latitude': 35.6644158, 'start': 18, 'venue': 'shibuya eggman', 'num_of_people': 0.03641616141834494, 'houry_num': [0, 0, 0, 0, 0, 0, 0, 0, 0, 0, 0, 0, 0, 0, 0, 0.012138720472781646, 0.02427744094556329, 0.03641616141834494, 0.03641616141834494, 0.03641616141834494, 0.03641616141834494, 0.02427744094556329, 0.012138720472781646, 0], 'date': '2016-5-27'}, {'longitude': 139.6998092, 'latitude': 35.6669377, 'start': 19, 'venue': 'AiiA Theater Tokyo', 'num_of_people': 0.3144264994444659, 'houry_num': [0, 0, 0, 0, 0, 0, 0, 0, 0, 0, 0, 0, 0, 0, 0, 0, 0.1048088331481553, 0.2096176662963106, 0.3144264994444659, 0.3144264994444659, 0.3144264994444659, 0.3144264994444659, 0.2096176662963106, 0.1048088331481553], 'date': '2016-5-27'}, {'longitude': 139.7360778, 'latitude': 35.6757238, 'start': 19, 'venue': '赤坂BLITZ', 'num_of_people': 0.3684011002962297, 'houry_num': [0, 0, 0, 0, 0, 0, 0, 0, 0, 0, 0, 0, 0, 0, 0, 0, 0.1228003667654099, 0.2456007335308198, 0.3684011002962297, 0.3684011002962297, 0.3684011002962297, 0.3684011002962297, 0.2456007335308198, 0.1228003667654099], 'date': '2016-5-27'}, {'longitude': 139.753828, 'latitude': 35.7049895, 'start': 19, 'venue': 'TOKYO DOME CITY HALL', 'num_of_people': 0.5253080401994313, 'houry_num': [0, 0, 0, 0, 0, 0, 0, 0, 0, 0, 0, 0, 0, 0, 0, 0, 0.1751026800664771, 0.3502053601329542, 0.5253080401994313, 0.5253080401994313, 0.5253080401994313, 0.5253080401994313, 0.3502053601329542, 0.1751026800664771], 'date': '2016-5-27'}, {'longitude': 139.7818926, 'latitude': 35.624722, 'start': 19, 'venue': 'Zepp Tokyo(東京)', 'num_of_people': 0.5086566954383981, 'houry_num': [0, 0, 0, 0, 0, 0, 0, 0, 0, 0, 0, 0, 0, 0, 0, 0, 0.16955223181279935, 0.3391044636255987, 0.5086566954383981, 0.5086566954383981, 0.5086566954383981, 0.5086566954383981, 0.3391044636255987, 0.16955223181279935], 'date': '2016-5-27'}, {'longitude': 139.6955447, 'latitude': 35.6589847, 'start': 19, 'venue': 'duo MUSIC EXCHANGE', 'num_of_people': 0.2878108126947773, 'houry_num': [0, 0, 0, 0, 0, 0, 0, 0, 0, 0, 0, 0, 0, 0, 0, 0, 0.09593693756492577, 0.19187387512985155, 0.2878108126947773, 0.2878108126947773, 0.2878108126947773, 0.2878108126947773, 0.19187387512985155, 0.09593693756492577], 'date': '2016-5-27'}, {'longitude': 139.6685077, 'latitude': 35.7136292, 'start': 19, 'venue': 'ウエストエンドスタジオ', 'num_of_people': 0.013062659197784661, 'houry_num': [0, 0, 0, 0, 0, 0, 0, 0, 0, 0, 0, 0, 0, 0, 0, 0, 0.004354219732594887, 0.008708439465189774, 0.013062659197784661, 0.013062659197784661, 0.013062659197784661, 0.013062659197784661, 0.008708439465189774, 0.004354219732594887], 'date': '2016-5-27'}, {'longitude': 139.7036079, 'latitude': 35.6885352, 'start': 19, 'venue': '新宿ANTIKNOCK', 'num_of_people': 0.14953509075903035, 'houry_num': [0, 0, 0, 0, 0, 0, 0, 0, 0, 0, 0, 0, 0, 0, 0, 0, 0.04984503025301012, 0.09969006050602024, 0.14953509075903035, 0.14953509075903035, 0.14953509075903035, 0.14953509075903035, 0.09969006050602024, 0.04984503025301012], 'date': '2016-5-27'}, {'longitude': 139.7178454, 'latitude': 35.5601542, 'start': 19, 'venue': '大田区民ホール・アプリコ', 'num_of_people': 0.40966738737376646, 'houry_num': [0, 0, 0, 0, 0, 0, 0, 0, 0, 0, 0, 0, 0, 0, 0, 0, 0.13655579579125549, 0.27311159158251097, 0.40966738737376646, 0.40966738737376646, 0.40966738737376646, 0.40966738737376646, 0.27311159158251097, 0.13655579579125549], 'date': '2016-5-27'}, {'longitude': 139.6978981, 'latitude': 35.6624758, 'start': 19, 'venue': 'Shibuya Milkyway', 'num_of_people': 0.11978092039134816, 'houry_num': [0, 0, 0, 0, 0, 0, 0, 0, 0, 0, 0, 0, 0, 0, 0, 0, 0.03992697346378272, 0.07985394692756544, 0.11978092039134816, 0.11978092039134816, 0.11978092039134816, 0.11978092039134816, 0.07985394692756544, 0.03992697346378272], 'date': '2016-5-27'}, {'longitude': 139.5835675, 'latitude': 35.7037669, 'start': 19, 'venue': '吉祥寺シアター', 'num_of_people': 0.11243752493365639, 'houry_num': [0, 0, 0, 0, 0, 0, 0, 0, 0, 0, 0, 0, 0, 0, 0, 0, 0.037479174977885464, 0.07495834995577093, 0.11243752493365639, 0.11243752493365639, 0.11243752493365639, 0.11243752493365639, 0.07495834995577093, 0.037479174977885464], 'date': '2016-5-27'}, {'longitude': 139.7015281, 'latitude': 35.6976677, 'start': 0, 'venue': '新宿ロフトPLUS ONE', 'num_of_people': 0.14953509075903035, 'houry_num': [0.14953509075903035, 0.14953509075903035, 0.14953509075903035, 0.09969006050602024, 0.04984503025301012, 0, 0, 0, 0, 0, 0, 0, 0, 0, 0, 0, 0, 0, 0, 0, 0, 0.04984503025301012, 0.09969006050602024, 0.14953509075903035], 'date': '2016-5-28'}, {'longitude': 139.7669618, 'latitude': 35.6668813, 'start': 11, 'venue': '新橋演舞場', 'num_of_people': 0.4041614539441325, 'houry_num': [0, 0, 0, 0, 0, 0, 0, 0, 0.13472048464804418, 0.26944096929608835, 0.4041614539441325, 0.4041614539441325, 0.4041614539441325, 0.4041614539441325, 0.26944096929608835, 0.13472048464804418, 0, 0, 0, 0, 0, 0, 0, 0], 'date': '2016-5-28'}, {'longitude': 139.717949, 'latitude': 35.6717432, 'start': 11, 'venue': '秩父宮ラグビー場', 'num_of_people': 0.8704825472011929, 'houry_num': [0, 0, 0, 0, 0, 0, 0, 0, 0.2901608490670643, 0.5803216981341286, 0.8704825472011929, 0.8704825472011929, 0.8704825472011929, 0.8704825472011929, 0.5803216981341286, 0.2901608490670643, 0, 0, 0, 0, 0, 0, 0, 0], 'date': '2016-5-28'}, {'longitude': 139.7065745, 'latitude': 35.6694569, 'start': 12, 'venue': '原宿アストロホール', 'num_of_people': 0.19648368831368862, 'houry_num': [0, 0, 0, 0, 0, 0, 0, 0, 0, 0.06549456277122954, 0.1309891255424591, 0.19648368831368862, 0.19648368831368862, 0.19648368831368862, 0.19648368831368862, 0.1309891255424591, 0.06549456277122954, 0, 0, 0, 0, 0, 0, 0], 'date': '2016-5-28'}, {'longitude': 139.6855544, 'latitude': 35.6813605, 'start': 12, 'venue': '初台TheDOORS', 'num_of_people': 0.1746918833540919, 'houry_num': [0, 0, 0, 0, 0, 0, 0, 0, 0, 0.05823062778469729, 0.11646125556939459, 0.1746918833540919, 0.1746918833540919, 0.1746918833540919, 0.1746918833540919, 0.11646125556939459, 0.05823062778469729, 0, 0, 0, 0, 0, 0, 0], 'date': '2016-5-28'}, {'longitude': 139.7333554, 'latitude': 35.6082652, 'start': 13, 'venue': '積水ハウスミュージカルシアター 四季劇場[夏]', 'num_of_people': 0.3757729494404012, 'houry_num': [0, 0, 0, 0, 0, 0, 0, 0, 0, 0, 0.12525764981346707, 0.25051529962693414, 0.3757729494404012, 0.3757729494404012, 0.3757729494404012, 0.3757729494404012, 0.25051529962693414, 0.12525764981346707, 0, 0, 0, 0, 0, 0], 'date': '2016-5-28'}, {'longitude': 139.6998092, 'latitude': 35.6669377, 'start': 13, 'venue': 'AiiA Theater Tokyo', 'num_of_people': 0.3144264994444659, 'houry_num': [0, 0, 0, 0, 0, 0, 0, 0, 0, 0, 0.1048088331481553, 0.2096176662963106, 0.3144264994444659, 0.3144264994444659, 0.3144264994444659, 0.3144264994444659, 0.2096176662963106, 0.1048088331481553, 0, 0, 0, 0, 0, 0], 'date': '2016-5-28'}, {'longitude': 139.669046, 'latitude': 35.6436557, 'start': 13, 'venue': '世田谷パブリックシアター', 'num_of_people': 0.2626540200997158, 'houry_num': [0, 0, 0, 0, 0, 0, 0, 0, 0, 0, 0.0875513400332386, 0.1751026800664772, 0.2626540200997158, 0.2626540200997158, 0.2626540200997158, 0.2626540200997158, 0.1751026800664772, 0.0875513400332386, 0, 0, 0, 0, 0, 0], 'date': '2016-5-28'}, {'longitude': 139.7644669, 'latitude': 35.6871844, 'start': 13, 'venue': 'よみうり大手町ホール', 'num_of_people': 0.23322591601111575, 'houry_num': [0, 0, 0, 0, 0, 0, 0, 0, 0, 0, 0.07774197200370525, 0.1554839440074105, 0.23322591601111575, 0.23322591601111575, 0.23322591601111575, 0.23322591601111575, 0.1554839440074105, 0.07774197200370525, 0, 0, 0, 0, 0, 0], 'date': '2016-5-28'}, {'longitude': 139.775383, 'latitude': 35.6854294, 'start': 13, 'venue': '日本橋三井ホール', 'num_of_people': 0.11978092039134816, 'houry_num': [0, 0, 0, 0, 0, 0, 0, 0, 0, 0, 0.03992697346378272, 0.07985394692756544, 0.11978092039134816, 0.11978092039134816, 0.11978092039134816, 0.11978092039134816, 0.07985394692756544, 0.03992697346378272, 0, 0, 0, 0, 0, 0], 'date': '2016-5-28'}, {'longitude': 139.69904, 'latitude': 35.6605134, 'start': 13, 'venue': 'PARCO劇場(パルコ劇場)', 'num_of_people': 0.21858119948517246, 'houry_num': [0, 0, 0, 0, 0, 0, 0, 0, 0, 0, 0.07286039982839082, 0.14572079965678164, 0.21858119948517246, 0.21858119948517246, 0.21858119948517246, 0.21858119948517246, 0.14572079965678164, 0.07286039982839082, 0, 0, 0, 0, 0, 0], 'date': '2016-5-28'}, {'longitude': 139.6662751, 'latitude': 35.7078586, 'start': 13, 'venue': 'なかのZERO', 'num_of_people': 0.44570744423838377, 'houry_num': [0, 0, 0, 0, 0, 0, 0, 0, 0, 0, 0.14856914807946126, 0.2971382961589225, 0.44570744423838377, 0.44570744423838377, 0.44570744423838377, 0.44570744423838377, 0.2971382961589225, 0.14856914807946126, 0, 0, 0, 0, 0, 0], 'date': '2016-5-28'}, {'longitude': 139.2881831, 'latitude': 35.7310813, 'start': 13, 'venue': '秋川キララホール', 'num_of_people': 0.28827642247820623, 'houry_num': [0, 0, 0, 0, 0, 0, 0, 0, 0, 0, 0.09609214082606875, 0.1921842816521375, 0.28827642247820623, 0.28827642247820623, 0.28827642247820623, 0.28827642247820623, 0.1921842816521375, 0.09609214082606875, 0, 0, 0, 0, 0, 0], 'date': '2016-5-28'}, {'longitude': 139.7942868, 'latitude': 35.6298179, 'start': 13, 'venue': '東京ビッグサイト', 'num_of_people': 0.5253080401994313, 'houry_num': [0, 0, 0, 0, 0, 0, 0, 0, 0, 0, 0.1751026800664771, 0.3502053601329542, 0.5253080401994313, 0.5253080401994313, 0.5253080401994313, 0.5253080401994313, 0.3502053601329542, 0.1751026800664771, 0, 0, 0, 0, 0, 0], 'date': '2016-5-28'}, {'longitude': 139.7752986, 'latitude': 35.714415, 'start': 14, 'venue': '東京文化会館', 'num_of_people': 0.5228967709443131, 'houry_num': [0, 0, 0, 0, 0, 0, 0, 0, 0, 0, 0, 0.17429892364810437, 0.34859784729620874, 0.5228967709443131, 0.5228967709443131, 0.5228967709443131, 0.5228967709443131, 0.34859784729620874, 0.17429892364810437, 0, 0, 0, 0, 0], 'date': '2016-5-28'}, {'longitude': 139.8101903, 'latitude': 35.69726740000001, 'start': 14, 'venue': 'すみだトリフォニーホール', 'num_of_people': 0.44203392056138263, 'houry_num': [0, 0, 0, 0, 0, 0, 0, 0, 0, 0, 0, 0.14734464018712753, 0.29468928037425507, 0.44203392056138263, 0.44203392056138263, 0.44203392056138263, 0.44203392056138263, 0.29468928037425507, 0.14734464018712753, 0, 0, 0, 0, 0], 'date': '2016-5-28'}, {'longitude': 139.7851078, 'latitude': 35.7352135, 'start': 14, 'venue': 'サンパール荒川', 'num_of_people': 0.36451358061711764, 'houry_num': [0, 0, 0, 0, 0, 0, 0, 0, 0, 0, 0, 0.12150452687237255, 0.2430090537447451, 0.36451358061711764, 0.36451358061711764, 0.36451358061711764, 0.36451358061711764, 0.2430090537447451, 0.12150452687237255, 0, 0, 0, 0, 0], 'date': '2016-5-28'}, {'longitude': 139.753828, 'latitude': 35.7049895, 'start': 14, 'venue': 'TOKYO DOME CITY HALL', 'num_of_people': 0.5253080401994313, 'houry_num': [0, 0, 0, 0, 0, 0, 0, 0, 0, 0, 0, 0.1751026800664771, 0.3502053601329542, 0.5253080401994313, 0.5253080401994313, 0.5253080401994313, 0.5253080401994313, 0.3502053601329542, 0.1751026800664771, 0, 0, 0, 0, 0], 'date': '2016-5-28'}, {'longitude': 139.6997279, 'latitude': 35.6841578, 'start': 14, 'venue': '山野美容専門学校 山野ホール', 'num_of_people': 0.38883560863818584, 'houry_num': [0, 0, 0, 0, 0, 0, 0, 0, 0, 0, 0, 0.12961186954606194, 0.2592237390921239, 0.38883560863818584, 0.38883560863818584, 0.38883560863818584, 0.38883560863818584, 0.2592237390921239, 0.12961186954606194, 0, 0, 0, 0, 0], 'date': '2016-5-28'}, {'longitude': 139.7669618, 'latitude': 35.6668813, 'start': 15, 'venue': '新橋演舞場', 'num_of_people': 0.4041614539441325, 'houry_num': [0, 0, 0, 0, 0, 0, 0, 0, 0, 0, 0, 0, 0.13472048464804418, 0.26944096929608835, 0.4041614539441325, 0.4041614539441325, 0.4041614539441325, 0.4041614539441325, 0.26944096929608835, 0.13472048464804418, 0, 0, 0, 0], 'date': '2016-5-28'}, {'longitude': 139.7818926, 'latitude': 35.624722, 'start': 15, 'venue': 'Zepp Tokyo(東京)', 'num_of_people': 0.5086566954383981, 'houry_num': [0, 0, 0, 0, 0, 0, 0, 0, 0, 0, 0, 0, 0.16955223181279935, 0.3391044636255987, 0.5086566954383981, 0.5086566954383981, 0.5086566954383981, 0.5086566954383981, 0.3391044636255987, 0.16955223181279935, 0, 0, 0, 0], 'date': '2016-5-28'}, {'longitude': 139.3378372, 'latitude': 35.7340069, 'start': 15, 'venue': '福生市民会館(もくせいホール)', 'num_of_people': 0.35583566578286197, 'houry_num': [0, 0, 0, 0, 0, 0, 0, 0, 0, 0, 0, 0, 0.11861188859428733, 0.23722377718857465, 0.35583566578286197, 0.35583566578286197, 0.35583566578286197, 0.35583566578286197, 0.23722377718857465, 0.11861188859428733, 0, 0, 0, 0], 'date': '2016-5-28'}, {'longitude': 139.753023, 'latitude': 35.6911892, 'start': 15, 'venue': '科学技術館 サイエンスホール', 'num_of_people': 0.20051342684135717, 'houry_num': [0, 0, 0, 0, 0, 0, 0, 0, 0, 0, 0, 0, 0.06683780894711906, 0.13367561789423812, 0.20051342684135717, 0.20051342684135717, 0.20051342684135717, 0.20051342684135717, 0.13367561789423812, 0.06683780894711906, 0, 0, 0, 0], 'date': '2016-5-28'}, {'longitude': 139.7057766, 'latitude': 35.6918655, 'start': 15, 'venue': 'シネマート新宿', 'num_of_people': 0.16754346536091944, 'houry_num': [0, 0, 0, 0, 0, 0, 0, 0, 0, 0, 0, 0, 0.055847821786973145, 0.11169564357394629, 0.16754346536091944, 0.16754346536091944, 0.16754346536091944, 0.16754346536091944, 0.11169564357394629, 0.055847821786973145, 0, 0, 0, 0], 'date': '2016-5-28'}, {'longitude': 139.7942868, 'latitude': 35.6298179, 'start': 15, 'venue': '東京ビッグサイト', 'num_of_people': 0.5253080401994313, 'houry_num': [0, 0, 0, 0, 0, 0, 0, 0, 0, 0, 0, 0, 0.1751026800664771, 0.3502053601329542, 0.5253080401994313, 0.5253080401994313, 0.5253080401994313, 0.5253080401994313, 0.3502053601329542, 0.1751026800664771, 0, 0, 0, 0], 'date': '2016-5-28'}, {'longitude': 139.7927659, 'latitude': 35.6551414, 'start': 16, 'venue': 'ユナイテッド・シネマ豊洲', 'num_of_people': 0.2017031972512113, 'houry_num': [0, 0, 0, 0, 0, 0, 0, 0, 0, 0, 0, 0, 0, 0.0672343990837371, 0.1344687981674742, 0.2017031972512113, 0.2017031972512113, 0.2017031972512113, 0.2017031972512113, 0.1344687981674742, 0.0672343990837371, 0, 0, 0], 'date': '2016-5-28'}, {'longitude': 139.7608036, 'latitude': 35.6767439, 'start': 17, 'venue': '帝国劇場', 'num_of_people': 0.4505089601437718, 'houry_num': [0, 0, 0, 0, 0, 0, 0, 0, 0, 0, 0, 0, 0, 0, 0.15016965338125726, 0.3003393067625145, 0.4505089601437718, 0.4505089601437718, 0.4505089601437718, 0.4505089601437718, 0.3003393067625145, 0.15016965338125726, 0, 0], 'date': '2016-5-28'}, {'longitude': 139.7271569, 'latitude': 35.6611948, 'start': 17, 'venue': 'EXシアター六本木(EX THEATER ROPPONGI)', 'num_of_people': 0.43697245679567354, 'houry_num': [0, 0, 0, 0, 0, 0, 0, 0, 0, 0, 0, 0, 0, 0, 0.14565748559855785, 0.2913149711971157, 0.43697245679567354, 0.43697245679567354, 0.43697245679567354, 0.43697245679567354, 0.2913149711971157, 0.14565748559855785, 0, 0], 'date': '2016-5-28'}, {'longitude': 139.7003548, 'latitude': 35.7047637, 'start': 17, 'venue': '東京グローブ座', 'num_of_people': 0.2885087301592708, 'houry_num': [0, 0, 0, 0, 0, 0, 0, 0, 0, 0, 0, 0, 0, 0, 0.09616957671975694, 0.19233915343951388, 0.2885087301592708, 0.2885087301592708, 0.2885087301592708, 0.2885087301592708, 0.19233915343951388, 0.09616957671975694, 0, 0], 'date': '2016-5-28'}, {'longitude': 139.7370814, 'latitude': 35.6755898, 'start': 17, 'venue': '赤坂RED/THEATER', 'num_of_people': 0.05969711590781936, 'houry_num': [0, 0, 0, 0, 0, 0, 0, 0, 0, 0, 0, 0, 0, 0, 0.019899038635939788, 0.039798077271879576, 0.05969711590781936, 0.05969711590781936, 0.05969711590781936, 0.05969711590781936, 0.039798077271879576, 0.019899038635939788, 0, 0], 'date': '2016-5-28'}, {'longitude': 139.669046, 'latitude': 35.6436557, 'start': 17, 'venue': '世田谷パブリックシアター', 'num_of_people': 0.2626540200997158, 'houry_num': [0, 0, 0, 0, 0, 0, 0, 0, 0, 0, 0, 0, 0, 0, 0.0875513400332386, 0.1751026800664772, 0.2626540200997158, 0.2626540200997158, 0.2626540200997158, 0.2626540200997158, 0.1751026800664772, 0.0875513400332386, 0, 0], 'date': '2016-5-28'}, {'longitude': 139.7010693, 'latitude': 35.6952791, 'start': 17, 'venue': '新宿BLAZE', 'num_of_people': 0.309602617654374, 'houry_num': [0, 0, 0, 0, 0, 0, 0, 0, 0, 0, 0, 0, 0, 0, 0.103200872551458, 0.206401745102916, 0.309602617654374, 0.309602617654374, 0.309602617654374, 0.309602617654374, 0.206401745102916, 0.103200872551458, 0, 0], 'date': '2016-5-28'}, {'longitude': 139.7596899, 'latitude': 35.672636, 'start': 17, 'venue': 'シアタークリエ', 'num_of_people': 0.26508378386691583, 'houry_num': [0, 0, 0, 0, 0, 0, 0, 0, 0, 0, 0, 0, 0, 0, 0.08836126128897194, 0.17672252257794388, 0.26508378386691583, 0.26508378386691583, 0.26508378386691583, 0.26508378386691583, 0.17672252257794388, 0.08836126128897194, 0, 0], 'date': '2016-5-28'}, {'longitude': 139.8522125, 'latitude': 35.7424583, 'start': 17, 'venue': 'かつしかシンフォニーヒルズ', 'num_of_people': 0.3910797464687201, 'houry_num': [0, 0, 0, 0, 0, 0, 0, 0, 0, 0, 0, 0, 0, 0, 0.13035991548957337, 0.26071983097914675, 0.3910797464687201, 0.3910797464687201, 0.3910797464687201, 0.3910797464687201, 0.26071983097914675, 0.13035991548957337, 0, 0], 'date': '2016-5-28'}, {'longitude': 139.7232404, 'latitude': 35.7262319, 'start': 17, 'venue': 'サンシャイン劇場', 'num_of_people': 0.31283432956304386, 'houry_num': [0, 0, 0, 0, 0, 0, 0, 0, 0, 0, 0, 0, 0, 0, 0.10427810985434795, 0.2085562197086959, 0.31283432956304386, 0.31283432956304386, 0.31283432956304386, 0.31283432956304386, 0.2085562197086959, 0.10427810985434795, 0, 0], 'date': '2016-5-28'}, {'longitude': 139.7942868, 'latitude': 35.6298179, 'start': 17, 'venue': '東京ビッグサイト', 'num_of_people': 0.5253080401994313, 'houry_num': [0, 0, 0, 0, 0, 0, 0, 0, 0, 0, 0, 0, 0, 0, 0.1751026800664771, 0.3502053601329542, 0.5253080401994313, 0.5253080401994313, 0.5253080401994313, 0.5253080401994313, 0.3502053601329542, 0.1751026800664771, 0, 0], 'date': '2016-5-28'}, {'longitude': 139.7360778, 'latitude': 35.6757238, 'start': 17, 'venue': '赤坂BLITZ', 'num_of_people': 0.3684011002962297, 'houry_num': [0, 0, 0, 0, 0, 0, 0, 0, 0, 0, 0, 0, 0, 0, 0.1228003667654099, 0.2456007335308198, 0.3684011002962297, 0.3684011002962297, 0.3684011002962297, 0.3684011002962297, 0.2456007335308198, 0.1228003667654099, 0, 0], 'date': '2016-5-28'}, {'longitude': 139.6646854, 'latitude': 35.707618, 'start': 17, 'venue': '中野サンプラザ', 'num_of_people': 0.4763158151725067, 'houry_num': [0, 0, 0, 0, 0, 0, 0, 0, 0, 0, 0, 0, 0, 0, 0.15877193839083556, 0.3175438767816711, 0.4763158151725067, 0.4763158151725067, 0.4763158151725067, 0.4763158151725067, 0.3175438767816711, 0.15877193839083556, 0, 0], 'date': '2016-5-28'}, {'longitude': 139.7620402, 'latitude': 35.6566796, 'start': 17, 'venue': '四季劇場[春]', 'num_of_people': 0.3830864228667848, 'houry_num': [0, 0, 0, 0, 0, 0, 0, 0, 0, 0, 0, 0, 0, 0, 0.12769547428892827, 0.25539094857785655, 0.3830864228667848, 0.3830864228667848, 0.3830864228667848, 0.3830864228667848, 0.25539094857785655, 0.12769547428892827, 0, 0], 'date': '2016-5-28'}, {'longitude': 139.7333554, 'latitude': 35.6082652, 'start': 17, 'venue': '積水ハウスミュージカルシアター 四季劇場[夏]', 'num_of_people': 0.3757729494404012, 'houry_num': [0, 0, 0, 0, 0, 0, 0, 0, 0, 0, 0, 0, 0, 0, 0.12525764981346707, 0.25051529962693414, 0.3757729494404012, 0.3757729494404012, 0.3757729494404012, 0.3757729494404012, 0.25051529962693414, 0.12525764981346707, 0, 0], 'date': '2016-5-28'}, {'longitude': 139.7644669, 'latitude': 35.6871844, 'start': 17, 'venue': 'よみうり大手町ホール', 'num_of_people': 0.23322591601111575, 'houry_num': [0, 0, 0, 0, 0, 0, 0, 0, 0, 0, 0, 0, 0, 0, 0.07774197200370525, 0.1554839440074105, 0.23322591601111575, 0.23322591601111575, 0.23322591601111575, 0.23322591601111575, 0.1554839440074105, 0.07774197200370525, 0, 0], 'date': '2016-5-28'}, {'longitude': 139.6856683, 'latitude': 35.6825909, 'start': 18, 'venue': '新国立劇場', 'num_of_people': 0.4432076736371961, 'houry_num': [0, 0, 0, 0, 0, 0, 0, 0, 0, 0, 0, 0, 0, 0, 0, 0.1477358912123987, 0.2954717824247974, 0.4432076736371961, 0.4432076736371961, 0.4432076736371961, 0.4432076736371961, 0.2954717824247974, 0.1477358912123987, 0], 'date': '2016-5-28'}, {'longitude': 139.6998092, 'latitude': 35.6669377, 'start': 18, 'venue': 'AiiA Theater Tokyo', 'num_of_people': 0.3144264994444659, 'houry_num': [0, 0, 0, 0, 0, 0, 0, 0, 0, 0, 0, 0, 0, 0, 0, 0.1048088331481553, 0.2096176662963106, 0.3144264994444659, 0.3144264994444659, 0.3144264994444659, 0.3144264994444659, 0.2096176662963106, 0.1048088331481553, 0], 'date': '2016-5-28'}, {'longitude': 139.6968789, 'latitude': 35.6665599, 'start': 18, 'venue': 'NHKホール', 'num_of_people': 0.5638857712105817, 'houry_num': [0, 0, 0, 0, 0, 0, 0, 0, 0, 0, 0, 0, 0, 0, 0, 0.18796192373686058, 0.37592384747372115, 0.5638857712105817, 0.5638857712105817, 0.5638857712105817, 0.5638857712105817, 0.37592384747372115, 0.18796192373686058, 0], 'date': '2016-5-28'}, {'longitude': 139.7413971, 'latitude': 35.66663339999999, 'start': 18, 'venue': 'サントリーホール', 'num_of_people': 0.4599516558283174, 'houry_num': [0, 0, 0, 0, 0, 0, 0, 0, 0, 0, 0, 0, 0, 0, 0, 0.15331721860943912, 0.30663443721887823, 0.4599516558283174, 0.4599516558283174, 0.4599516558283174, 0.4599516558283174, 0.30663443721887823, 0.15331721860943912, 0], 'date': '2016-5-28'}, {'longitude': 139.6955876, 'latitude': 35.658733, 'start': 18, 'venue': 'TSUTAYA O-EAST', 'num_of_people': 0.38883560863818584, 'houry_num': [0, 0, 0, 0, 0, 0, 0, 0, 0, 0, 0, 0, 0, 0, 0, 0.12961186954606194, 0.2592237390921239, 0.38883560863818584, 0.38883560863818584, 0.38883560863818584, 0.38883560863818584, 0.2592237390921239, 0.12961186954606194, 0], 'date': '2016-5-28'}, {'longitude': 139.5818774, 'latitude': 35.7055584, 'start': 18, 'venue': '吉祥寺 CLUB SEATA', 'num_of_people': 0.23289984973203356, 'houry_num': [0, 0, 0, 0, 0, 0, 0, 0, 0, 0, 0, 0, 0, 0, 0, 0.07763328324401118, 0.15526656648802237, 0.23289984973203356, 0.23289984973203356, 0.23289984973203356, 0.23289984973203356, 0.15526656648802237, 0.07763328324401118, 0], 'date': '2016-5-28'}, {'longitude': 139.6997279, 'latitude': 35.6841578, 'start': 18, 'venue': '山野美容専門学校 山野ホール', 'num_of_people': 0.38883560863818584, 'houry_num': [0, 0, 0, 0, 0, 0, 0, 0, 0, 0, 0, 0, 0, 0, 0, 0.12961186954606194, 0.2592237390921239, 0.38883560863818584, 0.38883560863818584, 0.38883560863818584, 0.38883560863818584, 0.2592237390921239, 0.12961186954606194, 0], 'date': '2016-5-28'}, {'longitude': 139.7543263, 'latitude': 35.6728275, 'start': 18, 'venue': '日比谷野外大音楽堂', 'num_of_people': 0.5316563935141161, 'houry_num': [0, 0, 0, 0, 0, 0, 0, 0, 0, 0, 0, 0, 0, 0, 0, 0.1772187978380387, 0.3544375956760774, 0.5316563935141161, 0.5316563935141161, 0.5316563935141161, 0.5316563935141161, 0.3544375956760774, 0.1772187978380387, 0], 'date': '2016-5-28'}, {'longitude': 139.69904, 'latitude': 35.6605134, 'start': 18, 'venue': 'PARCO劇場(パルコ劇場)', 'num_of_people': 0.21858119948517246, 'houry_num': [0, 0, 0, 0, 0, 0, 0, 0, 0, 0, 0, 0, 0, 0, 0, 0.07286039982839082, 0.14572079965678164, 0.21858119948517246, 0.21858119948517246, 0.21858119948517246, 0.21858119948517246, 0.14572079965678164, 0.07286039982839082, 0], 'date': '2016-5-28'}, {'longitude': 139.6979181, 'latitude': 35.6905359, 'start': 18, 'venue': '新宿明治安田生命ホール', 'num_of_people': 0.1709183945832041, 'houry_num': [0, 0, 0, 0, 0, 0, 0, 0, 0, 0, 0, 0, 0, 0, 0, 0.05697279819440137, 0.11394559638880274, 0.1709183945832041, 0.1709183945832041, 0.1709183945832041, 0.1709183945832041, 0.11394559638880274, 0.05697279819440137, 0], 'date': '2016-5-28'}, {'longitude': 139.775383, 'latitude': 35.6854294, 'start': 18, 'venue': '日本橋三井ホール', 'num_of_people': 0.11978092039134816, 'houry_num': [0, 0, 0, 0, 0, 0, 0, 0, 0, 0, 0, 0, 0, 0, 0, 0.03992697346378272, 0.07985394692756544, 0.11978092039134816, 0.11978092039134816, 0.11978092039134816, 0.11978092039134816, 0.07985394692756544, 0.03992697346378272, 0], 'date': '2016-5-28'}, {'longitude': 139.7360778, 'latitude': 35.6757238, 'start': 18, 'venue': '赤坂ACTシアター', 'num_of_people': 0.39182098673647703, 'houry_num': [0, 0, 0, 0, 0, 0, 0, 0, 0, 0, 0, 0, 0, 0, 0, 0.13060699557882569, 0.26121399115765137, 0.39182098673647703, 0.39182098673647703, 0.39182098673647703, 0.39182098673647703, 0.26121399115765137, 0.13060699557882569, 0], 'date': '2016-5-28'}, {'longitude': 139.753828, 'latitude': 35.7049895, 'start': 18, 'venue': 'TOKYO DOME CITY HALL', 'num_of_people': 0.5253080401994313, 'houry_num': [0, 0, 0, 0, 0, 0, 0, 0, 0, 0, 0, 0, 0, 0, 0, 0.1751026800664771, 0.3502053601329542, 0.5253080401994313, 0.5253080401994313, 0.5253080401994313, 0.5253080401994313, 0.3502053601329542, 0.1751026800664771, 0], 'date': '2016-5-28'}, {'longitude': 139.5254355, 'latitude': 35.6634009, 'start': 18, 'venue': '味の素スタジアム', 'num_of_people': 0.9843478015547451, 'houry_num': [0, 0, 0, 0, 0, 0, 0, 0, 0, 0, 0, 0, 0, 0, 0, 0.3281159338515817, 0.6562318677031634, 0.9843478015547451, 0.9843478015547451, 0.9843478015547451, 0.9843478015547451, 0.6562318677031634, 0.3281159338515817, 0], 'date': '2016-5-28'}, {'longitude': 139.753023, 'latitude': 35.6911892, 'start': 18, 'venue': '科学技術館 サイエンスホール', 'num_of_people': 0.20051342684135717, 'houry_num': [0, 0, 0, 0, 0, 0, 0, 0, 0, 0, 0, 0, 0, 0, 0, 0.06683780894711906, 0.13367561789423812, 0.20051342684135717, 0.20051342684135717, 0.20051342684135717, 0.20051342684135717, 0.13367561789423812, 0.06683780894711906, 0], 'date': '2016-5-28'}, {'longitude': 139.7818926, 'latitude': 35.624722, 'start': 19, 'venue': 'Zepp Tokyo(東京)', 'num_of_people': 0.5086566954383981, 'houry_num': [0, 0, 0, 0, 0, 0, 0, 0, 0, 0, 0, 0, 0, 0, 0, 0, 0.16955223181279935, 0.3391044636255987, 0.5086566954383981, 0.5086566954383981, 0.5086566954383981, 0.5086566954383981, 0.3391044636255987, 0.16955223181279935], 'date': '2016-5-28'}, {'longitude': 139.7524309, 'latitude': 35.707951, 'start': 19, 'venue': '文京シビックホール', 'num_of_people': 0.4421245095830762, 'houry_num': [0, 0, 0, 0, 0, 0, 0, 0, 0, 0, 0, 0, 0, 0, 0, 0, 0.14737483652769207, 0.29474967305538413, 0.4421245095830762, 0.4421245095830762, 0.4421245095830762, 0.4421245095830762, 0.29474967305538413, 0.14737483652769207], 'date': '2016-5-28'}, {'longitude': 139.6950487, 'latitude': 35.6583941, 'start': 22, 'venue': 'WOMB', 'num_of_people': 0.7217917285131203, 'houry_num': [0.7217917285131203, 0.48119448567541356, 0.24059724283770678, 0, 0, 0, 0, 0, 0, 0, 0, 0, 0, 0, 0, 0, 0, 0, 0, 0.24059724283770678, 0.48119448567541356, 0.7217917285131203, 0.7217917285131203, 0.7217917285131203], 'date': '2016-5-28'}, {'longitude': 139.7669618, 'latitude': 35.6668813, 'start': 11, 'venue': '新橋演舞場', 'num_of_people': 0.4041614539441325, 'houry_num': [0, 0, 0, 0, 0, 0, 0, 0, 0.13472048464804418, 0.26944096929608835, 0.4041614539441325, 0.4041614539441325, 0.4041614539441325, 0.4041614539441325, 0.26944096929608835, 0.13472048464804418, 0, 0, 0, 0, 0, 0, 0, 0], 'date': '2016-5-29'}, {'longitude': 139.7936036, 'latitude': 35.6972034, 'start': 11, 'venue': '両国国技館', 'num_of_people': 0.7387934705737997, 'houry_num': [0, 0, 0, 0, 0, 0, 0, 0, 0.2462644901912666, 0.4925289803825332, 0.7387934705737997, 0.7387934705737997, 0.7387934705737997, 0.7387934705737997, 0.4925289803825332, 0.2462644901912666, 0, 0, 0, 0, 0, 0, 0, 0], 'date': '2016-5-29'}, {'longitude': 139.7608036, 'latitude': 35.6767439, 'start': 12, 'venue': '帝国劇場', 'num_of_people': 0.4505089601437718, 'houry_num': [0, 0, 0, 0, 0, 0, 0, 0, 0, 0.15016965338125726, 0.3003393067625145, 0.4505089601437718, 0.4505089601437718, 0.4505089601437718, 0.4505089601437718, 0.3003393067625145, 0.15016965338125726, 0, 0, 0, 0, 0, 0, 0], 'date': '2016-5-29'}, {'longitude': 139.7232404, 'latitude': 35.7262319, 'start': 12, 'venue': 'サンシャイン劇場', 'num_of_people': 0.31283432956304386, 'houry_num': [0, 0, 0, 0, 0, 0, 0, 0, 0, 0.10427810985434795, 0.2085562197086959, 0.31283432956304386, 0.31283432956304386, 0.31283432956304386, 0.31283432956304386, 0.2085562197086959, 0.10427810985434795, 0, 0, 0, 0, 0, 0, 0], 'date': '2016-5-29'}, {'longitude': 139.7623483, 'latitude': 35.6650287, 'start': 13, 'venue': '電通四季劇場[海]', 'num_of_people': 0.37793451903320624, 'houry_num': [0, 0, 0, 0, 0, 0, 0, 0, 0, 0, 0.12597817301106876, 0.2519563460221375, 0.37793451903320624, 0.37793451903320624, 0.37793451903320624, 0.37793451903320624, 0.2519563460221375, 0.12597817301106876, 0, 0, 0, 0, 0, 0], 'date': '2016-5-29'}, {'longitude': 139.7620402, 'latitude': 35.6566796, 'start': 13, 'venue': '四季劇場[春]', 'num_of_people': 0.3830864228667848, 'houry_num': [0, 0, 0, 0, 0, 0, 0, 0, 0, 0, 0.12769547428892827, 0.25539094857785655, 0.3830864228667848, 0.3830864228667848, 0.3830864228667848, 0.3830864228667848, 0.25539094857785655, 0.12769547428892827, 0, 0, 0, 0, 0, 0], 'date': '2016-5-29'}, {'longitude': 139.7333554, 'latitude': 35.6082652, 'start': 13, 'venue': '積水ハウスミュージカルシアター 四季劇場[夏]', 'num_of_people': 0.3757729494404012, 'houry_num': [0, 0, 0, 0, 0, 0, 0, 0, 0, 0, 0.12525764981346707, 0.25051529962693414, 0.3757729494404012, 0.3757729494404012, 0.3757729494404012, 0.3757729494404012, 0.25051529962693414, 0.12525764981346707, 0, 0, 0, 0, 0, 0], 'date': '2016-5-29'}, {'longitude': 139.6998092, 'latitude': 35.6669377, 'start': 13, 'venue': 'AiiA Theater Tokyo', 'num_of_people': 0.3144264994444659, 'houry_num': [0, 0, 0, 0, 0, 0, 0, 0, 0, 0, 0.1048088331481553, 0.2096176662963106, 0.3144264994444659, 0.3144264994444659, 0.3144264994444659, 0.3144264994444659, 0.2096176662963106, 0.1048088331481553, 0, 0, 0, 0, 0, 0], 'date': '2016-5-29'}, {'longitude': 139.7370814, 'latitude': 35.6755898, 'start': 13, 'venue': '赤坂RED/THEATER', 'num_of_people': 0.05969711590781936, 'houry_num': [0, 0, 0, 0, 0, 0, 0, 0, 0, 0, 0.019899038635939788, 0.039798077271879576, 0.05969711590781936, 0.05969711590781936, 0.05969711590781936, 0.05969711590781936, 0.039798077271879576, 0.019899038635939788, 0, 0, 0, 0, 0, 0], 'date': '2016-5-29'}, {'longitude': 139.669046, 'latitude': 35.6436557, 'start': 13, 'venue': '世田谷パブリックシアター', 'num_of_people': 0.2626540200997158, 'houry_num': [0, 0, 0, 0, 0, 0, 0, 0, 0, 0, 0.0875513400332386, 0.1751026800664772, 0.2626540200997158, 0.2626540200997158, 0.2626540200997158, 0.2626540200997158, 0.1751026800664772, 0.0875513400332386, 0, 0, 0, 0, 0, 0], 'date': '2016-5-29'}, {'longitude': 139.7644669, 'latitude': 35.6871844, 'start': 13, 'venue': 'よみうり大手町ホール', 'num_of_people': 0.23322591601111575, 'houry_num': [0, 0, 0, 0, 0, 0, 0, 0, 0, 0, 0.07774197200370525, 0.1554839440074105, 0.23322591601111575, 0.23322591601111575, 0.23322591601111575, 0.23322591601111575, 0.1554839440074105, 0.07774197200370525, 0, 0, 0, 0, 0, 0], 'date': '2016-5-29'}, {'longitude': 139.669046, 'latitude': 35.6436557, 'start': 13, 'venue': 'シアタートラム', 'num_of_people': 0.11847010114810888, 'houry_num': [0, 0, 0, 0, 0, 0, 0, 0, 0, 0, 0.039490033716036294, 0.07898006743207259, 0.11847010114810888, 0.11847010114810888, 0.11847010114810888, 0.11847010114810888, 0.07898006743207259, 0.039490033716036294, 0, 0, 0, 0, 0, 0], 'date': '2016-5-29'}, {'longitude': 139.7596899, 'latitude': 35.672636, 'start': 13, 'venue': 'シアタークリエ', 'num_of_people': 0.26508378386691583, 'houry_num': [0, 0, 0, 0, 0, 0, 0, 0, 0, 0, 0.08836126128897194, 0.17672252257794388, 0.26508378386691583, 0.26508378386691583, 0.26508378386691583, 0.26508378386691583, 0.17672252257794388, 0.08836126128897194, 0, 0, 0, 0, 0, 0], 'date': '2016-5-29'}, {'longitude': 139.7432769, 'latitude': 35.6815595, 'start': 13, 'venue': '国立演芸場', 'num_of_people': 0.14953509075903035, 'houry_num': [0, 0, 0, 0, 0, 0, 0, 0, 0, 0, 0.04984503025301012, 0.09969006050602024, 0.14953509075903035, 0.14953509075903035, 0.14953509075903035, 0.14953509075903035, 0.09969006050602024, 0.04984503025301012, 0, 0, 0, 0, 0, 0], 'date': '2016-5-29'}, {'longitude': 139.6979181, 'latitude': 35.6905359, 'start': 13, 'venue': '新宿明治安田生命ホール', 'num_of_people': 0.1709183945832041, 'houry_num': [0, 0, 0, 0, 0, 0, 0, 0, 0, 0, 0.05697279819440137, 0.11394559638880274, 0.1709183945832041, 0.1709183945832041, 0.1709183945832041, 0.1709183945832041, 0.11394559638880274, 0.05697279819440137, 0, 0, 0, 0, 0, 0], 'date': '2016-5-29'}, {'longitude': 139.753828, 'latitude': 35.7049895, 'start': 13, 'venue': 'TOKYO DOME CITY HALL', 'num_of_people': 0.5253080401994313, 'houry_num': [0, 0, 0, 0, 0, 0, 0, 0, 0, 0, 0.1751026800664771, 0.3502053601329542, 0.5253080401994313, 0.5253080401994313, 0.5253080401994313, 0.5253080401994313, 0.3502053601329542, 0.1751026800664771, 0, 0, 0, 0, 0, 0], 'date': '2016-5-29'}, {'longitude': 139.7752986, 'latitude': 35.714415, 'start': 14, 'venue': '東京文化会館', 'num_of_people': 0.5228967709443131, 'houry_num': [0, 0, 0, 0, 0, 0, 0, 0, 0, 0, 0, 0.17429892364810437, 0.34859784729620874, 0.5228967709443131, 0.5228967709443131, 0.5228967709443131, 0.5228967709443131, 0.34859784729620874, 0.17429892364810437, 0, 0, 0, 0, 0], 'date': '2016-5-29'}, {'longitude': 139.7531449, 'latitude': 35.7028239, 'start': 14, 'venue': '東京ドーム', 'num_of_people': 1, 'houry_num': [0, 0, 0, 0, 0, 0, 0, 0, 0, 0, 0, 0.3333333333333333, 0.6666666666666666, 1, 1, 1, 1, 0.6666666666666666, 0.3333333333333333, 0, 0, 0, 0, 0], 'date': '2016-5-29'}, {'longitude': 139.7080751, 'latitude': 35.729842, 'start': 14, 'venue': '東京芸術劇場', 'num_of_people': 0.45905608994789204, 'houry_num': [0, 0, 0, 0, 0, 0, 0, 0, 0, 0, 0, 0.15301869664929735, 0.3060373932985947, 0.45905608994789204, 0.45905608994789204, 0.45905608994789204, 0.45905608994789204, 0.3060373932985947, 0.15301869664929735, 0, 0, 0, 0, 0], 'date': '2016-5-29'}, {'longitude': 139.6540083, 'latitude': 35.7059012, 'start': 14, 'venue': '座・高円寺1', 'num_of_people': 0.11175326347673473, 'houry_num': [0, 0, 0, 0, 0, 0, 0, 0, 0, 0, 0, 0.03725108782557824, 0.07450217565115648, 0.11175326347673473, 0.11175326347673473, 0.11175326347673473, 0.11175326347673473, 0.07450217565115648, 0.03725108782557824, 0, 0, 0, 0, 0], 'date': '2016-5-29'}, {'longitude': 139.7360778, 'latitude': 35.6757238, 'start': 14, 'venue': '赤坂ACTシアター', 'num_of_people': 0.39182098673647703, 'houry_num': [0, 0, 0, 0, 0, 0, 0, 0, 0, 0, 0, 0.13060699557882569, 0.26121399115765137, 0.39182098673647703, 0.39182098673647703, 0.39182098673647703, 0.39182098673647703, 0.26121399115765137, 0.13060699557882569, 0, 0, 0, 0, 0], 'date': '2016-5-29'}, {'longitude': 139.7105837, 'latitude': 35.6490402, 'start': 14, 'venue': 'LIQUIDROOM (リキッドルーム)', 'num_of_people': 0.346018779072719, 'houry_num': [0, 0, 0, 0, 0, 0, 0, 0, 0, 0, 0, 0.11533959302423967, 0.23067918604847934, 0.346018779072719, 0.346018779072719, 0.346018779072719, 0.346018779072719, 0.23067918604847934, 0.11533959302423967, 0, 0, 0, 0, 0], 'date': '2016-5-29'}, {'longitude': 139.7411329, 'latitude': 35.6633171, 'start': 14, 'venue': 'ラフォーレミュージアム六本木', 'num_of_people': 0.38883560863818584, 'houry_num': [0, 0, 0, 0, 0, 0, 0, 0, 0, 0, 0, 0.12961186954606194, 0.2592237390921239, 0.38883560863818584, 0.38883560863818584, 0.38883560863818584, 0.38883560863818584, 0.2592237390921239, 0.12961186954606194, 0, 0, 0, 0, 0], 'date': '2016-5-29'}, {'longitude': 139.7669618, 'latitude': 35.6668813, 'start': 15, 'venue': '新橋演舞場', 'num_of_people': 0.4041614539441325, 'houry_num': [0, 0, 0, 0, 0, 0, 0, 0, 0, 0, 0, 0, 0.13472048464804418, 0.26944096929608835, 0.4041614539441325, 0.4041614539441325, 0.4041614539441325, 0.4041614539441325, 0.26944096929608835, 0.13472048464804418, 0, 0, 0, 0], 'date': '2016-5-29'}, {'longitude': 139.7141548, 'latitude': 35.7334357, 'start': 15, 'venue': '池袋mismatch', 'num_of_people': 0.08336475897300322, 'houry_num': [0, 0, 0, 0, 0, 0, 0, 0, 0, 0, 0, 0, 0.027788252991001072, 0.055576505982002145, 0.08336475897300322, 0.08336475897300322, 0.08336475897300322, 0.08336475897300322, 0.055576505982002145, 0.027788252991001072, 0, 0, 0, 0], 'date': '2016-5-29'}, {'longitude': 139.7360778, 'latitude': 35.6757238, 'start': 16, 'venue': '赤坂BLITZ', 'num_of_people': 0.3684011002962297, 'houry_num': [0, 0, 0, 0, 0, 0, 0, 0, 0, 0, 0, 0, 0, 0.1228003667654099, 0.2456007335308198, 0.3684011002962297, 0.3684011002962297, 0.3684011002962297, 0.3684011002962297, 0.2456007335308198, 0.1228003667654099, 0, 0, 0], 'date': '2016-5-29'}, {'longitude': 139.7271569, 'latitude': 35.6611948, 'start': 16, 'venue': 'EXシアター六本木(EX THEATER ROPPONGI)', 'num_of_people': 0.43697245679567354, 'houry_num': [0, 0, 0, 0, 0, 0, 0, 0, 0, 0, 0, 0, 0, 0.14565748559855785, 0.2913149711971157, 0.43697245679567354, 0.43697245679567354, 0.43697245679567354, 0.43697245679567354, 0.2913149711971157, 0.14565748559855785, 0, 0, 0], 'date': '2016-5-29'}, {'longitude': 139.6968789, 'latitude': 35.6665599, 'start': 17, 'venue': 'NHKホール', 'num_of_people': 0.5638857712105817, 'houry_num': [0, 0, 0, 0, 0, 0, 0, 0, 0, 0, 0, 0, 0, 0, 0.18796192373686058, 0.37592384747372115, 0.5638857712105817, 0.5638857712105817, 0.5638857712105817, 0.5638857712105817, 0.37592384747372115, 0.18796192373686058, 0, 0], 'date': '2016-5-29'}, {'longitude': 139.8253126, 'latitude': 35.6422295, 'start': 17, 'venue': '新木場STUDIO COAST', 'num_of_people': 0.48902781891255404, 'houry_num': [0, 0, 0, 0, 0, 0, 0, 0, 0, 0, 0, 0, 0, 0, 0.16300927297085135, 0.3260185459417027, 0.48902781891255404, 0.48902781891255404, 0.48902781891255404, 0.48902781891255404, 0.3260185459417027, 0.16300927297085135, 0, 0], 'date': '2016-5-29'}, {'longitude': 139.5254355, 'latitude': 35.6634009, 'start': 17, 'venue': '味の素スタジアム', 'num_of_people': 0.9843478015547451, 'houry_num': [0, 0, 0, 0, 0, 0, 0, 0, 0, 0, 0, 0, 0, 0, 0.3281159338515817, 0.6562318677031634, 0.9843478015547451, 0.9843478015547451, 0.9843478015547451, 0.9843478015547451, 0.6562318677031634, 0.3281159338515817, 0, 0], 'date': '2016-5-29'}, {'longitude': 139.7596899, 'latitude': 35.672636, 'start': 17, 'venue': 'シアタークリエ', 'num_of_people': 0.26508378386691583, 'houry_num': [0, 0, 0, 0, 0, 0, 0, 0, 0, 0, 0, 0, 0, 0, 0.08836126128897194, 0.17672252257794388, 0.26508378386691583, 0.26508378386691583, 0.26508378386691583, 0.26508378386691583, 0.17672252257794388, 0.08836126128897194, 0, 0], 'date': '2016-5-29'}, {'longitude': 139.6953459, 'latitude': 35.6590191, 'start': 17, 'venue': 'clubasia', 'num_of_people': 0.14953509075903035, 'houry_num': [0, 0, 0, 0, 0, 0, 0, 0, 0, 0, 0, 0, 0, 0, 0.04984503025301012, 0.09969006050602024, 0.14953509075903035, 0.14953509075903035, 0.14953509075903035, 0.14953509075903035, 0.09969006050602024, 0.04984503025301012, 0, 0], 'date': '2016-5-29'}, {'longitude': 139.7365219, 'latitude': 35.7550207, 'start': 17, 'venue': '北とぴあ', 'num_of_people': 0.38883560863818584, 'houry_num': [0, 0, 0, 0, 0, 0, 0, 0, 0, 0, 0, 0, 0, 0, 0.12961186954606194, 0.2592237390921239, 0.38883560863818584, 0.38883560863818584, 0.38883560863818584, 0.38883560863818584, 0.2592237390921239, 0.12961186954606194, 0, 0], 'date': '2016-5-29'}, {'longitude': 139.6955876, 'latitude': 35.658733, 'start': 17, 'venue': 'TSUTAYA O-EAST', 'num_of_people': 0.38883560863818584, 'houry_num': [0, 0, 0, 0, 0, 0, 0, 0, 0, 0, 0, 0, 0, 0, 0.12961186954606194, 0.2592237390921239, 0.38883560863818584, 0.38883560863818584, 0.38883560863818584, 0.38883560863818584, 0.2592237390921239, 0.12961186954606194, 0, 0], 'date': '2016-5-29'}, {'longitude': 139.6979181, 'latitude': 35.6905359, 'start': 17, 'venue': '新宿明治安田生命ホール', 'num_of_people': 0.1709183945832041, 'houry_num': [0, 0, 0, 0, 0, 0, 0, 0, 0, 0, 0, 0, 0, 0, 0.05697279819440137, 0.11394559638880274, 0.1709183945832041, 0.1709183945832041, 0.1709183945832041, 0.1709183945832041, 0.11394559638880274, 0.05697279819440137, 0, 0], 'date': '2016-5-29'}, {'longitude': 139.7818926, 'latitude': 35.624722, 'start': 18, 'venue': 'Zepp Tokyo(東京)', 'num_of_people': 0.5086566954383981, 'houry_num': [0, 0, 0, 0, 0, 0, 0, 0, 0, 0, 0, 0, 0, 0, 0, 0.16955223181279935, 0.3391044636255987, 0.5086566954383981, 0.5086566954383981, 0.5086566954383981, 0.5086566954383981, 0.3391044636255987, 0.16955223181279935, 0], 'date': '2016-5-29'}, {'longitude': 139.753828, 'latitude': 35.7049895, 'start': 18, 'venue': 'TOKYO DOME CITY HALL', 'num_of_people': 0.5253080401994313, 'houry_num': [0, 0, 0, 0, 0, 0, 0, 0, 0, 0, 0, 0, 0, 0, 0, 0.1751026800664771, 0.3502053601329542, 0.5253080401994313, 0.5253080401994313, 0.5253080401994313, 0.5253080401994313, 0.3502053601329542, 0.1751026800664771, 0], 'date': '2016-5-29'}, {'longitude': 139.6978981, 'latitude': 35.6624758, 'start': 18, 'venue': 'aube shibuya', 'num_of_people': 0.14953509075903035, 'houry_num': [0, 0, 0, 0, 0, 0, 0, 0, 0, 0, 0, 0, 0, 0, 0, 0.04984503025301012, 0.09969006050602024, 0.14953509075903035, 0.14953509075903035, 0.14953509075903035, 0.14953509075903035, 0.09969006050602024, 0.04984503025301012, 0], 'date': '2016-5-29'}, {'longitude': 139.7411329, 'latitude': 35.6633171, 'start': 18, 'venue': 'ラフォーレミュージアム六本木', 'num_of_people': 0.38883560863818584, 'houry_num': [0, 0, 0, 0, 0, 0, 0, 0, 0, 0, 0, 0, 0, 0, 0, 0.12961186954606194, 0.2592237390921239, 0.38883560863818584, 0.38883560863818584, 0.38883560863818584, 0.38883560863818584, 0.2592237390921239, 0.12961186954606194, 0], 'date': '2016-5-29'}, {'longitude': 139.7015281, 'latitude': 35.6976677, 'start': 18, 'venue': '新宿ロフトPLUS ONE', 'num_of_people': 0.14953509075903035, 'houry_num': [0, 0, 0, 0, 0, 0, 0, 0, 0, 0, 0, 0, 0, 0, 0, 0.04984503025301012, 0.09969006050602024, 0.14953509075903035, 0.14953509075903035, 0.14953509075903035, 0.14953509075903035, 0.09969006050602024, 0.04984503025301012, 0], 'date': '2016-5-29'}, {'longitude': 139.7567015, 'latitude': 35.6617206, 'start': 19, 'venue': 'ヤクルトホール', 'num_of_people': 0.24845410111919766, 'houry_num': [0, 0, 0, 0, 0, 0, 0, 0, 0, 0, 0, 0, 0, 0, 0, 0, 0.08281803370639922, 0.16563606741279843, 0.24845410111919766, 0.24845410111919766, 0.24845410111919766, 0.24845410111919766, 0.16563606741279843, 0.08281803370639922], 'date': '2016-5-29'}, {'longitude': 139.6682685, 'latitude': 35.6611423, 'start': 19, 'venue': 'しもきた空間リバティ', 'num_of_people': 0, 'houry_num': [0, 0, 0, 0, 0, 0, 0, 0, 0, 0, 0, 0, 0, 0, 0, 0, 0.0, 0.0, 0, 0, 0, 0, 0.0, 0.0], 'date': '2016-5-29'}, {'longitude': 139.7003548, 'latitude': 35.7047637, 'start': 13, 'venue': '東京グローブ座', 'num_of_people': 0.2885087301592708, 'houry_num': [0, 0, 0, 0, 0, 0, 0, 0, 0, 0, 0.09616957671975694, 0.19233915343951388, 0.2885087301592708, 0.2885087301592708, 0.2885087301592708, 0.2885087301592708, 0.19233915343951388, 0.09616957671975694, 0, 0, 0, 0, 0, 0], 'date': '2016-5-30'}, {'longitude': 139.8522125, 'latitude': 35.7424583, 'start': 14, 'venue': 'かつしかシンフォニーヒルズ', 'num_of_people': 0.3910797464687201, 'houry_num': [0, 0, 0, 0, 0, 0, 0, 0, 0, 0, 0, 0.13035991548957337, 0.26071983097914675, 0.3910797464687201, 0.3910797464687201, 0.3910797464687201, 0.3910797464687201, 0.26071983097914675, 0.13035991548957337, 0, 0, 0, 0, 0], 'date': '2016-5-30'}, {'longitude': 139.7596899, 'latitude': 35.672636, 'start': 14, 'venue': 'シアタークリエ', 'num_of_people': 0.26508378386691583, 'houry_num': [0, 0, 0, 0, 0, 0, 0, 0, 0, 0, 0, 0.08836126128897194, 0.17672252257794388, 0.26508378386691583, 0.26508378386691583, 0.26508378386691583, 0.26508378386691583, 0.17672252257794388, 0.08836126128897194, 0, 0, 0, 0, 0], 'date': '2016-5-30'}, {'longitude': 139.8522125, 'latitude': 35.7424583, 'start': 18, 'venue': 'かつしかシンフォニーヒルズ', 'num_of_people': 0.3910797464687201, 'houry_num': [0, 0, 0, 0, 0, 0, 0, 0, 0, 0, 0, 0, 0, 0, 0, 0.13035991548957337, 0.26071983097914675, 0.3910797464687201, 0.3910797464687201, 0.3910797464687201, 0.3910797464687201, 0.26071983097914675, 0.13035991548957337, 0], 'date': '2016-5-30'}, {'longitude': 139.7497593, 'latitude': 35.6934055, 'start': 18, 'venue': '日本武道館', 'num_of_people': 0.7767026914758637, 'houry_num': [0, 0, 0, 0, 0, 0, 0, 0, 0, 0, 0, 0, 0, 0, 0, 0.25890089715862125, 0.5178017943172425, 0.7767026914758637, 0.7767026914758637, 0.7767026914758637, 0.7767026914758637, 0.5178017943172425, 0.25890089715862125, 0], 'date': '2016-5-30'}, {'longitude': 139.7003548, 'latitude': 35.7047637, 'start': 18, 'venue': '東京グローブ座', 'num_of_people': 0.2885087301592708, 'houry_num': [0, 0, 0, 0, 0, 0, 0, 0, 0, 0, 0, 0, 0, 0, 0, 0.09616957671975694, 0.19233915343951388, 0.2885087301592708, 0.2885087301592708, 0.2885087301592708, 0.2885087301592708, 0.19233915343951388, 0.09616957671975694, 0], 'date': '2016-5-30'}, {'longitude': 139.7752986, 'latitude': 35.714415, 'start': 19, 'venue': '東京文化会館', 'num_of_people': 0.5228967709443131, 'houry_num': [0, 0, 0, 0, 0, 0, 0, 0, 0, 0, 0, 0, 0, 0, 0, 0, 0.17429892364810437, 0.34859784729620874, 0.5228967709443131, 0.5228967709443131, 0.5228967709443131, 0.5228967709443131, 0.34859784729620874, 0.17429892364810437], 'date': '2016-5-30'}, {'longitude': 139.6683205, 'latitude': 35.6615874, 'start': 19, 'venue': '本多劇場', 'num_of_people': 0.19066947121311845, 'houry_num': [0, 0, 0, 0, 0, 0, 0, 0, 0, 0, 0, 0, 0, 0, 0, 0, 0.06355649040437282, 0.12711298080874564, 0.19066947121311845, 0.19066947121311845, 0.19066947121311845, 0.19066947121311845, 0.12711298080874564, 0.06355649040437282], 'date': '2016-5-30'}, {'longitude': 139.7271569, 'latitude': 35.6611948, 'start': 19, 'venue': 'EXシアター六本木(EX THEATER ROPPONGI)', 'num_of_people': 0.43697245679567354, 'houry_num': [0, 0, 0, 0, 0, 0, 0, 0, 0, 0, 0, 0, 0, 0, 0, 0, 0.14565748559855785, 0.2913149711971157, 0.43697245679567354, 0.43697245679567354, 0.43697245679567354, 0.43697245679567354, 0.2913149711971157, 0.14565748559855785], 'date': '2016-5-30'}, {'longitude': 139.7596899, 'latitude': 35.672636, 'start': 12, 'venue': 'シアタークリエ', 'num_of_people': 0.26508378386691583, 'houry_num': [0, 0, 0, 0, 0, 0, 0, 0, 0, 0.08836126128897194, 0.17672252257794388, 0.26508378386691583, 0.26508378386691583, 0.26508378386691583, 0.26508378386691583, 0.17672252257794388, 0.08836126128897194, 0, 0, 0, 0, 0, 0, 0], 'date': '2016-5-31'}, {'longitude': 139.6998092, 'latitude': 35.6669377, 'start': 14, 'venue': 'AiiA Theater Tokyo', 'num_of_people': 0.3144264994444659, 'houry_num': [0, 0, 0, 0, 0, 0, 0, 0, 0, 0, 0, 0.1048088331481553, 0.2096176662963106, 0.3144264994444659, 0.3144264994444659, 0.3144264994444659, 0.3144264994444659, 0.2096176662963106, 0.1048088331481553, 0, 0, 0, 0, 0], 'date': '2016-5-31'}, {'longitude': 139.7370814, 'latitude': 35.6755898, 'start': 14, 'venue': '赤坂RED/THEATER', 'num_of_people': 0.05969711590781936, 'houry_num': [0, 0, 0, 0, 0, 0, 0, 0, 0, 0, 0, 0.019899038635939788, 0.039798077271879576, 0.05969711590781936, 0.05969711590781936, 0.05969711590781936, 0.05969711590781936, 0.039798077271879576, 0.019899038635939788, 0, 0, 0, 0, 0], 'date': '2016-5-31'}, {'longitude': 139.7608036, 'latitude': 35.6767439, 'start': 18, 'venue': '帝国劇場', 'num_of_people': 0.4505089601437718, 'houry_num': [0, 0, 0, 0, 0, 0, 0, 0, 0, 0, 0, 0, 0, 0, 0, 0.15016965338125726, 0.3003393067625145, 0.4505089601437718, 0.4505089601437718, 0.4505089601437718, 0.4505089601437718, 0.3003393067625145, 0.15016965338125726, 0], 'date': '2016-5-31'}, {'longitude': 139.7497593, 'latitude': 35.6934055, 'start': 18, 'venue': '日本武道館', 'num_of_people': 0.7767026914758637, 'houry_num': [0, 0, 0, 0, 0, 0, 0, 0, 0, 0, 0, 0, 0, 0, 0, 0.25890089715862125, 0.5178017943172425, 0.7767026914758637, 0.7767026914758637, 0.7767026914758637, 0.7767026914758637, 0.5178017943172425, 0.25890089715862125, 0], 'date': '2016-5-31'}]
