線形
[{"num_of_people":0.20003644314868804,"start":8,"date":"2016-5-21","venue":"両国国技館","longitude":139.7936036,"latitude":35.6972034},{"num_of_people":0.0017857142857142857,"start":13,"date":"2016-5-21","venue":"テアトル新宿","longitude":139.7052181,"latitude":35.6922864},{"num_of_people":0.002186588921282799,"start":15,"date":"2016-5-21","venue":"TFTホール","longitude":139.7904725,"latitude":35.6309772},{"num_of_people":0.052478134110787174,"start":16,"date":"2016-5-21","venue":"TOKYO DOME CITY HALL","longitude":139.753828,"latitude":35.7049895},{"num_of_people":0.2529154518950437,"start":17,"date":"2016-5-21","venue":"日本武道館","longitude":139.7497593,"latitude":35.6934055},{"num_of_people":0.016034985422740525,"start":17,"date":"2016-5-21","venue":"LIQUIDROOM (リキッドルーム)","longitude":139.7105837,"latitude":35.6490402},{"num_of_people":0.008910349854227406,"start":17,"date":"2016-5-21","venue":"シアタークリエ","longitude":139.7596899,"latitude":35.672636},{"num_of_people":0.020681486880466473,"start":17,"date":"2016-5-21","venue":"四季劇場[春]","longitude":139.7620402,"latitude":35.6566796},{"num_of_people":0.038301749271137026,"start":17,"date":"2016-5-21","venue":"中野サンプラザ","longitude":139.6646854,"latitude":35.707618},{"num_of_people":0.05464650145772595,"start":17,"date":"2016-5-21","venue":"日比谷野外大音楽堂","longitude":139.7543263,"latitude":35.6728275},{"num_of_people":0.006942419825072886,"start":17,"date":"2016-5-21","venue":"よみうり大手町ホール","longitude":139.7644669,"latitude":35.6871844},{"num_of_people":0.006013119533527697,"start":17,"date":"2016-5-21","venue":"Shibuya WWW","longitude":139.6987557,"latitude":35.6615117},{"num_of_people":1,"start":18,"date":"2016-5-21","venue":"東京ドーム","longitude":139.7531449,"latitude":35.7028239},{"num_of_people":0.23912172011661806,"start":18,"date":"2016-5-21","venue":"国立代々木競技場 第一体育館","longitude":139.6998092,"latitude":35.6669377},{"num_of_people":0.6277696793002915,"start":18,"date":"2016-5-21","venue":"神宮球場","longitude":139.716599,"latitude":35.67374849999999},{"num_of_people":0.006013119533527697,"start":18,"date":"2016-5-21","venue":"AREA","longitude":139.7016709,"latitude":35.7136295},{"num_of_people":0.016034985422740525,"start":18,"date":"2016-5-21","venue":"UNIT","longitude":139.7071813,"latitude":35.6483457},{"num_of_people":0.05435495626822157,"start":18,"date":"2016-5-21","venue":"豊洲PIT","longitude":139.7889943,"latitude":35.6495585},{"num_of_people":0.20003644314868804,"start":8,"date":"2016-5-22","venue":"両国国技館","longitude":139.7936036,"latitude":35.6972034},{"num_of_people":0.03423833819241982,"start":14,"date":"2016-5-22","venue":"東京芸術劇場","longitude":139.7080751,"latitude":35.729842},{"num_of_people":0.014231049562682216,"start":14,"date":"2016-5-22","venue":"六本木ブルーシアター","longitude":139.729426,"latitude":35.6641222},{"num_of_people":0.0032798833819241984,"start":14,"date":"2016-5-22","venue":"俳優座劇場","longitude":139.7327091,"latitude":35.6638057},{"num_of_people":0.0069241982507288625,"start":14,"date":"2016-5-22","venue":"全電通労働会館","longitude":139.7658304,"latitude":35.69685},{"num_of_people":0.010568513119533527,"start":15,"date":"2016-5-22","venue":"品川インターシティホール","longitude":139.7418095,"latitude":35.6265605},{"num_of_people":0.05435495626822157,"start":15,"date":"2016-5-22","venue":"豊洲PIT","longitude":139.7889943,"latitude":35.6495585},{"num_of_people":0.04717565597667638,"start":15,"date":"2016-5-22","venue":"Zepp Tokyo(東京)","longitude":139.7818926,"latitude":35.624722},{"num_of_people":0.052478134110787174,"start":16,"date":"2016-5-22","venue":"TOKYO DOME CITY HALL","longitude":139.753828,"latitude":35.7049895},{"num_of_people":0.0052842565597667635,"start":16,"date":"2016-5-22","venue":"科学技術館 サイエンスホール","longitude":139.753023,"latitude":35.6911892},{"num_of_people":0.9083454810495627,"start":16,"date":"2016-5-22","venue":"味の素スタジアム","longitude":139.5254355,"latitude":35.6634009},{"num_of_people":0.2529154518950437,"start":17,"date":"2016-5-22","venue":"日本武道館","longitude":139.7497593,"latitude":35.6934055},{"num_of_people":1,"start":17,"date":"2016-5-22","venue":"東京ドーム","longitude":139.7531449,"latitude":35.7028239},{"num_of_people":0.23912172011661806,"start":17,"date":"2016-5-22","venue":"国立代々木競技場 第一体育館","longitude":139.6998092,"latitude":35.6669377},{"num_of_people":0.008910349854227406,"start":17,"date":"2016-5-22","venue":"シアタークリエ","longitude":139.7596899,"latitude":35.672636},{"num_of_people":0.04427842565597668,"start":11,"date":"2016-5-23","venue":"グランドプリンスホテル新高輪 大宴会場 飛天","longitude":139.7352793,"latitude":35.6309486},{"num_of_people":0.03237973760932945,"start":13,"date":"2016-5-23","venue":"帝国劇場","longitude":139.7608036,"latitude":35.6767439},{"num_of_people":0.008454810495626823,"start":15,"date":"2016-5-23","venue":"全労済ホール/スペース・ゼロ","longitude":139.6972798,"latitude":35.6869818},{"num_of_people":0.03086734693877551,"start":17,"date":"2016-5-23","venue":"新国立劇場","longitude":139.6856683,"latitude":35.6825909},{"num_of_people":0.04427842565597668,"start":17,"date":"2016-5-23","venue":"グランドプリンスホテル新高輪 大宴会場 飛天","longitude":139.7352793,"latitude":35.6309486},{"num_of_people":1,"start":18,"date":"2016-5-23","venue":"東京ドーム","longitude":139.7531449,"latitude":35.7028239},{"num_of_people":0.031377551020408165,"start":18,"date":"2016-5-23","venue":"なかのZERO","longitude":139.6662751,"latitude":35.7078586},{"num_of_people":0.004464285714285714,"start":18,"date":"2016-5-23","venue":"クラブeX","longitude":139.735285,"latitude":35.6280212},{"num_of_people":0.06705539358600583,"start":18,"date":"2016-5-23","venue":"NHKホール","longitude":139.6968789,"latitude":35.6665599},{"num_of_people":0.03443877551020408,"start":19,"date":"2016-5-23","venue":"サントリーホール","longitude":139.7413971,"latitude":35.66663339999999},{"num_of_people":0.008746355685131196,"start":19,"date":"2016-5-23","venue":"TSUTAYA O-WEST","longitude":139.6953404,"latitude":35.6585025},{"num_of_people":0.0032798833819241984,"start":19,"date":"2016-5-23","venue":"俳優座劇場","longitude":139.7327091,"latitude":35.6638057},{"num_of_people":0.027551020408163266,"start":19,"date":"2016-5-23","venue":"東京オペラシティ","longitude":139.6868265,"latitude":35.683002},{"num_of_people":0.05167638483965015,"start":19,"date":"2016-5-23","venue":"東京文化会館","longitude":139.7752986,"latitude":35.714415},{"num_of_people":0.029628279883381924,"start":19,"date":"2016-5-23","venue":"EXシアター六本木(EX THEATER ROPPONGI)","longitude":139.7271569,"latitude":35.6611948},{"num_of_people":0.03237973760932945,"start":13,"date":"2016-5-24","venue":"帝国劇場","longitude":139.7608036,"latitude":35.6767439},{"num_of_people":0.02193877551020408,"start":13,"date":"2016-5-24","venue":"赤坂ACTシアター","longitude":139.7360778,"latitude":35.6757238},{"num_of_people":0.010623177842565598,"start":14,"date":"2016-5-24","venue":"東京グローブ座","longitude":139.7003548,"latitude":35.7047637},{"num_of_people":0.004846938775510204,"start":14,"date":"2016-5-24","venue":"本多劇場","longitude":139.6683205,"latitude":35.6615874},{"num_of_people":0.008746355685131196,"start":14,"date":"2016-5-24","venue":"世田谷パブリックシアター","longitude":139.669046,"latitude":35.6436557},{"num_of_people":0.006942419825072886,"start":14,"date":"2016-5-24","venue":"よみうり大手町ホール","longitude":139.7644669,"latitude":35.6871844},{"num_of_people":0.03237973760932945,"start":18,"date":"2016-5-24","venue":"帝国劇場","longitude":139.7608036,"latitude":35.6767439},{"num_of_people":0.023833819241982506,"start":18,"date":"2016-5-24","venue":"新橋演舞場","longitude":139.7669618,"latitude":35.6668813},{"num_of_people":0.6277696793002915,"start":18,"date":"2016-5-24","venue":"神宮球場","longitude":139.716599,"latitude":35.67374849999999},{"num_of_people":0.008910349854227406,"start":18,"date":"2016-5-24","venue":"シアタークリエ","longitude":139.7596899,"latitude":35.672636},{"num_of_people":0.019970845481049562,"start":18,"date":"2016-5-24","venue":"電通四季劇場[海]","longitude":139.7623483,"latitude":35.6650287},{"num_of_people":0.02193877551020408,"start":13,"date":"2016-5-25","venue":"赤坂ACTシアター","longitude":139.7360778,"latitude":35.6757238},{"num_of_people":0.008910349854227406,"start":14,"date":"2016-5-25","venue":"シアタークリエ","longitude":139.7596899,"latitude":35.672636},{"num_of_people":0.006158892128279883,"start":14,"date":"2016-5-25","venue":"PARCO劇場(パルコ劇場)","longitude":139.69904,"latitude":35.6605134},{"num_of_people":0.03183309037900874,"start":16,"date":"2016-5-25","venue":"歌舞伎座","longitude":139.7680533,"latitude":35.6697366},{"num_of_people":0.6277696793002915,"start":18,"date":"2016-5-25","venue":"神宮球場","longitude":139.716599,"latitude":35.67374849999999},{"num_of_people":0.008910349854227406,"start":18,"date":"2016-5-25","venue":"シアタークリエ","longitude":139.7596899,"latitude":35.672636},{"num_of_people":0.03423833819241982,"start":18,"date":"2016-5-25","venue":"東京芸術劇場","longitude":139.7080751,"latitude":35.729842},{"num_of_people":0.019970845481049562,"start":18,"date":"2016-5-25","venue":"電通四季劇場[海]","longitude":139.7623483,"latitude":35.6650287},{"num_of_people":0.23912172011661806,"start":18,"date":"2016-5-25","venue":"国立代々木競技場 第一体育館","longitude":139.6998092,"latitude":35.6669377},{"num_of_people":0.006942419825072886,"start":18,"date":"2016-5-25","venue":"よみうり大手町ホール","longitude":139.7644669,"latitude":35.6871844},{"num_of_people":0.038301749271137026,"start":18,"date":"2016-5-25","venue":"中野サンプラザ","longitude":139.6646854,"latitude":35.707618},{"num_of_people":0.0023688046647230322,"start":18,"date":"2016-5-25","venue":"池袋EDGE","longitude":139.7127357,"latitude":35.7291034},{"num_of_people":0.003917638483965014,"start":18,"date":"2016-5-25","venue":"シネマート新宿","longitude":139.7057766,"latitude":35.6918655},{"num_of_people":0.0032798833819241984,"start":18,"date":"2016-5-25","venue":"国立演芸場","longitude":139.7432769,"latitude":35.6815595},{"num_of_people":0.03443877551020408,"start":19,"date":"2016-5-25","venue":"サントリーホール","longitude":139.7413971,"latitude":35.66663339999999},{"num_of_people":0.029628279883381924,"start":19,"date":"2016-5-25","venue":"EXシアター六本木(EX THEATER ROPPONGI)","longitude":139.7271569,"latitude":35.6611948},{"num_of_people":0.03064868804664723,"start":19,"date":"2016-5-25","venue":"新宿文化センター","longitude":139.7094319,"latitude":35.6954929},{"num_of_people":0.016034985422740525,"start":19,"date":"2016-5-25","venue":"UNIT","longitude":139.7071813,"latitude":35.6483457},{"num_of_people":0.01239067055393586,"start":19,"date":"2016-5-25","venue":"渋谷クラブクアトロ(CLUB QUATTRO)","longitude":139.6975651,"latitude":35.6609856},{"num_of_people":0,"start":19,"date":"2016-5-25","venue":"ムジカーザ","longitude":139.6817551,"latitude":35.67122},{"num_of_people":0.006013119533527697,"start":19,"date":"2016-5-25","venue":"Shibuya WWW","longitude":139.6987557,"latitude":35.6615117},{"num_of_people":0.0023688046647230322,"start":20,"date":"2016-5-25","venue":"SHELTER","longitude":139.6694646,"latitude":35.6614799},{"num_of_people":0.023833819241982506,"start":11,"date":"2016-5-26","venue":"新橋演舞場","longitude":139.7669618,"latitude":35.6668813},{"num_of_people":0.019970845481049562,"start":13,"date":"2016-5-26","venue":"電通四季劇場[海]","longitude":139.7623483,"latitude":35.6650287},{"num_of_people":0.03086734693877551,"start":14,"date":"2016-5-26","venue":"新国立劇場","longitude":139.6856683,"latitude":35.6825909},{"num_of_people":0.008910349854227406,"start":14,"date":"2016-5-26","venue":"シアタークリエ","longitude":139.7596899,"latitude":35.672636},{"num_of_people":0.03237973760932945,"start":18,"date":"2016-5-26","venue":"帝国劇場","longitude":139.7608036,"latitude":35.6767439},{"num_of_people":0.023833819241982506,"start":18,"date":"2016-5-26","venue":"新橋演舞場","longitude":139.7669618,"latitude":35.6668813},{"num_of_people":0.6277696793002915,"start":18,"date":"2016-5-26","venue":"神宮球場","longitude":139.716599,"latitude":35.67374849999999},{"num_of_people":0.008910349854227406,"start":18,"date":"2016-5-26","venue":"シアタークリエ","longitude":139.7596899,"latitude":35.672636},{"num_of_people":0.03423833819241982,"start":18,"date":"2016-5-26","venue":"東京芸術劇場","longitude":139.7080751,"latitude":35.729842},{"num_of_people":0.019679300291545188,"start":18,"date":"2016-5-26","venue":"積水ハウスミュージカルシアター 四季劇場[夏]","longitude":139.7333554,"latitude":35.6082652},{"num_of_people":0.006942419825072886,"start":18,"date":"2016-5-26","venue":"よみうり大手町ホール","longitude":139.7644669,"latitude":35.6871844},{"num_of_people":0.02193877551020408,"start":18,"date":"2016-5-26","venue":"赤坂ACTシアター","longitude":139.7360778,"latitude":35.6757238},{"num_of_people":0.0018221574344023323,"start":18,"date":"2016-5-26","venue":"古賀政男音楽博物館 けやきホール","longitude":139.6800387,"latitude":35.6678203},{"num_of_people":0.0032798833819241984,"start":19,"date":"2016-5-26","venue":"LIVE HOUSE FEVER","longitude":139.6599964,"latitude":35.6627795},{"num_of_people":0.008746355685131196,"start":19,"date":"2016-5-26","venue":"世田谷パブリックシアター","longitude":139.669046,"latitude":35.6436557},{"num_of_people":0.0032798833819241984,"start":19,"date":"2016-5-26","venue":"俳優座劇場","longitude":139.7327091,"latitude":35.6638057},{"num_of_people":0.006158892128279883,"start":19,"date":"2016-5-26","venue":"PARCO劇場(パルコ劇場)","longitude":139.69904,"latitude":35.6605134},{"num_of_people":0.004792274052478134,"start":19,"date":"2016-5-26","venue":"ユナイテッド・シネマとしまえん","longitude":139.6486577,"latitude":35.7423364},{"num_of_people":0.023833819241982506,"start":11,"date":"2016-5-27","venue":"新橋演舞場","longitude":139.7669618,"latitude":35.6668813},{"num_of_people":0.022740524781341108,"start":11,"date":"2016-5-27","venue":"明治座","longitude":139.7873211,"latitude":35.6877545},{"num_of_people":0.03237973760932945,"start":13,"date":"2016-5-27","venue":"帝国劇場","longitude":139.7608036,"latitude":35.6767439},{"num_of_people":0.006158892128279883,"start":13,"date":"2016-5-27","venue":"PARCO劇場(パルコ劇場)","longitude":139.69904,"latitude":35.6605134},{"num_of_people":0.002150145772594752,"start":14,"date":"2016-5-27","venue":"座・高円寺1","longitude":139.6540083,"latitude":35.7059012},{"num_of_people":0.02193877551020408,"start":14,"date":"2016-5-27","venue":"赤坂ACTシアター","longitude":139.7360778,"latitude":35.6757238},{"num_of_people":1,"start":18,"date":"2016-5-27","venue":"東京ドーム","longitude":139.7531449,"latitude":35.7028239},{"num_of_people":0.008910349854227406,"start":18,"date":"2016-5-27","venue":"シアタークリエ","longitude":139.7596899,"latitude":35.672636},{"num_of_people":0.038301749271137026,"start":18,"date":"2016-5-27","venue":"中野サンプラザ","longitude":139.6646854,"latitude":35.707618},{"num_of_people":0.05167638483965015,"start":18,"date":"2016-5-27","venue":"東京文化会館","longitude":139.7752986,"latitude":35.714415},{"num_of_people":0.06705539358600583,"start":18,"date":"2016-5-27","venue":"NHKホール","longitude":139.6968789,"latitude":35.6665599},{"num_of_people":0.006942419825072886,"start":18,"date":"2016-5-27","venue":"よみうり大手町ホール","longitude":139.7644669,"latitude":35.6871844},{"num_of_people":0.2529154518950437,"start":18,"date":"2016-5-27","venue":"日本武道館","longitude":139.7497593,"latitude":35.6934055},{"num_of_people":0.23912172011661806,"start":18,"date":"2016-5-27","venue":"国立代々木競技場 第一体育館","longitude":139.6998092,"latitude":35.6669377},{"num_of_people":0.041581632653061223,"start":18,"date":"2016-5-27","venue":"新木場STUDIO COAST","longitude":139.8253126,"latitude":35.6422295},{"num_of_people":0.0005466472303206997,"start":18,"date":"2016-5-27","venue":"shibuya eggman","longitude":139.6995259,"latitude":35.6644158},{"num_of_people":0.01282798833819242,"start":19,"date":"2016-5-27","venue":"AiiA Theater Tokyo","longitude":139.6998092,"latitude":35.6669377},{"num_of_people":0.018713556851311954,"start":19,"date":"2016-5-27","venue":"赤坂BLITZ","longitude":139.7360778,"latitude":35.6757238},{"num_of_people":0.052478134110787174,"start":19,"date":"2016-5-27","venue":"TOKYO DOME CITY HALL","longitude":139.753828,"latitude":35.7049895},{"num_of_people":0.04717565597667638,"start":19,"date":"2016-5-27","venue":"Zepp Tokyo(東京)","longitude":139.7818926,"latitude":35.624722},{"num_of_people":0.010568513119533527,"start":19,"date":"2016-5-27","venue":"duo MUSIC EXCHANGE","longitude":139.6955447,"latitude":35.6589847},{"num_of_people":0.00018221574344023323,"start":19,"date":"2016-5-27","venue":"ウエストエンドスタジオ","longitude":139.6685077,"latitude":35.7136292},{"num_of_people":0.0032798833819241984,"start":19,"date":"2016-5-27","venue":"新宿ANTIKNOCK","longitude":139.7036079,"latitude":35.6885352},{"num_of_people":0.02472667638483965,"start":19,"date":"2016-5-27","venue":"大田区民ホール・アプリコ","longitude":139.7178454,"latitude":35.5601542},{"num_of_people":0.0023688046647230322,"start":19,"date":"2016-5-27","venue":"Shibuya Milkyway","longitude":139.6978981,"latitude":35.6624758},{"num_of_people":0.0021683673469387755,"start":19,"date":"2016-5-27","venue":"吉祥寺シアター","longitude":139.5835675,"latitude":35.7037669},{"num_of_people":0.0032798833819241984,"start":0,"date":"2016-5-28","venue":"新宿ロフトPLUS ONE","longitude":139.7015281,"latitude":35.6976677},{"num_of_people":0.023833819241982506,"start":11,"date":"2016-5-28","venue":"新橋演舞場","longitude":139.7669618,"latitude":35.6668813},{"num_of_people":0.45100218658892127,"start":11,"date":"2016-5-28","venue":"秩父宮ラグビー場","longitude":139.717949,"latitude":35.6717432},{"num_of_people":0.00510204081632653,"start":12,"date":"2016-5-28","venue":"原宿アストロホール","longitude":139.7065745,"latitude":35.6694569},{"num_of_people":0.0041909620991253645,"start":12,"date":"2016-5-28","venue":"初台TheDOORS","longitude":139.6855544,"latitude":35.6813605},{"num_of_people":0.019679300291545188,"start":13,"date":"2016-5-28","venue":"積水ハウスミュージカルシアター 四季劇場[夏]","longitude":139.7333554,"latitude":35.6082652},{"num_of_people":0.01282798833819242,"start":13,"date":"2016-5-28","venue":"AiiA Theater Tokyo","longitude":139.6998092,"latitude":35.6669377},{"num_of_people":0.008746355685131196,"start":13,"date":"2016-5-28","venue":"世田谷パブリックシアター","longitude":139.669046,"latitude":35.6436557},{"num_of_people":0.006942419825072886,"start":13,"date":"2016-5-28","venue":"よみうり大手町ホール","longitude":139.7644669,"latitude":35.6871844},{"num_of_people":0.0023688046647230322,"start":13,"date":"2016-5-28","venue":"日本橋三井ホール","longitude":139.775383,"latitude":35.6854294},{"num_of_people":0.006158892128279883,"start":13,"date":"2016-5-28","venue":"PARCO劇場(パルコ劇場)","longitude":139.69904,"latitude":35.6605134},{"num_of_people":0.031377551020408165,"start":13,"date":"2016-5-28","venue":"なかのZERO","longitude":139.6662751,"latitude":35.7078586},{"num_of_people":0.010604956268221574,"start":13,"date":"2016-5-28","venue":"秋川キララホール","longitude":139.2881831,"latitude":35.7310813},{"num_of_people":0.052478134110787174,"start":13,"date":"2016-5-28","venue":"東京ビッグサイト","longitude":139.7942868,"latitude":35.6298179},{"num_of_people":0.05167638483965015,"start":14,"date":"2016-5-28","venue":"東京文化会館","longitude":139.7752986,"latitude":35.714415},{"num_of_people":0.030630466472303206,"start":14,"date":"2016-5-28","venue":"すみだトリフォニーホール","longitude":139.8101903,"latitude":35.69726740000001},{"num_of_people":0.018221574344023325,"start":14,"date":"2016-5-28","venue":"サンパール荒川","longitude":139.7851078,"latitude":35.7352135},{"num_of_people":0.052478134110787174,"start":14,"date":"2016-5-28","venue":"TOKYO DOME CITY HALL","longitude":139.753828,"latitude":35.7049895},{"num_of_people":0.021501457725947522,"start":14,"date":"2016-5-28","venue":"山野美容専門学校 山野ホール","longitude":139.6997279,"latitude":35.6841578},{"num_of_people":0.023833819241982506,"start":15,"date":"2016-5-28","venue":"新橋演舞場","longitude":139.7669618,"latitude":35.6668813},{"num_of_people":0.04717565597667638,"start":15,"date":"2016-5-28","venue":"Zepp Tokyo(東京)","longitude":139.7818926,"latitude":35.624722},{"num_of_people":0.01716472303206997,"start":15,"date":"2016-5-28","venue":"福生市民会館(もくせいホール)","longitude":139.3378372,"latitude":35.7340069},{"num_of_people":0.0052842565597667635,"start":15,"date":"2016-5-28","venue":"科学技術館 サイエンスホール","longitude":139.753023,"latitude":35.6911892},{"num_of_people":0.003917638483965014,"start":15,"date":"2016-5-28","venue":"シネマート新宿","longitude":139.7057766,"latitude":35.6918655},{"num_of_people":0.052478134110787174,"start":15,"date":"2016-5-28","venue":"東京ビッグサイト","longitude":139.7942868,"latitude":35.6298179},{"num_of_people":0.005338921282798834,"start":16,"date":"2016-5-28","venue":"ユナイテッド・シネマ豊洲","longitude":139.7927659,"latitude":35.6551414},{"num_of_people":0.03237973760932945,"start":17,"date":"2016-5-28","venue":"帝国劇場","longitude":139.7608036,"latitude":35.6767439},{"num_of_people":0.029628279883381924,"start":17,"date":"2016-5-28","venue":"EXシアター六本木(EX THEATER ROPPONGI)","longitude":139.7271569,"latitude":35.6611948},{"num_of_people":0.010623177842565598,"start":17,"date":"2016-5-28","venue":"東京グローブ座","longitude":139.7003548,"latitude":35.7047637},{"num_of_people":0.0009657434402332362,"start":17,"date":"2016-5-28","venue":"赤坂RED/THEATER","longitude":139.7370814,"latitude":35.6755898},{"num_of_people":0.008746355685131196,"start":17,"date":"2016-5-28","venue":"世田谷パブリックシアター","longitude":139.669046,"latitude":35.6436557},{"num_of_people":0.01239067055393586,"start":17,"date":"2016-5-28","venue":"新宿BLAZE","longitude":139.7010693,"latitude":35.6952791},{"num_of_people":0.008910349854227406,"start":17,"date":"2016-5-28","venue":"シアタークリエ","longitude":139.7596899,"latitude":35.672636},{"num_of_people":0.021829446064139942,"start":17,"date":"2016-5-28","venue":"かつしかシンフォニーヒルズ","longitude":139.8522125,"latitude":35.7424583},{"num_of_people":0.012682215743440233,"start":17,"date":"2016-5-28","venue":"サンシャイン劇場","longitude":139.7232404,"latitude":35.7262319},{"num_of_people":0.052478134110787174,"start":17,"date":"2016-5-28","venue":"東京ビッグサイト","longitude":139.7942868,"latitude":35.6298179},{"num_of_people":0.018713556851311954,"start":17,"date":"2016-5-28","venue":"赤坂BLITZ","longitude":139.7360778,"latitude":35.6757238},{"num_of_people":0.038301749271137026,"start":17,"date":"2016-5-28","venue":"中野サンプラザ","longitude":139.6646854,"latitude":35.707618},{"num_of_people":0.020681486880466473,"start":17,"date":"2016-5-28","venue":"四季劇場[春]","longitude":139.7620402,"latitude":35.6566796},{"num_of_people":0.019679300291545188,"start":17,"date":"2016-5-28","venue":"積水ハウスミュージカルシアター 四季劇場[夏]","longitude":139.7333554,"latitude":35.6082652},{"num_of_people":0.006942419825072886,"start":17,"date":"2016-5-28","venue":"よみうり大手町ホール","longitude":139.7644669,"latitude":35.6871844},{"num_of_people":0.03086734693877551,"start":18,"date":"2016-5-28","venue":"新国立劇場","longitude":139.6856683,"latitude":35.6825909},{"num_of_people":0.01282798833819242,"start":18,"date":"2016-5-28","venue":"AiiA Theater Tokyo","longitude":139.6998092,"latitude":35.6669377},{"num_of_people":0.06705539358600583,"start":18,"date":"2016-5-28","venue":"NHKホール","longitude":139.6968789,"latitude":35.6665599},{"num_of_people":0.03443877551020408,"start":18,"date":"2016-5-28","venue":"サントリーホール","longitude":139.7413971,"latitude":35.66663339999999},{"num_of_people":0.021501457725947522,"start":18,"date":"2016-5-28","venue":"TSUTAYA O-EAST","longitude":139.6955876,"latitude":35.658733},{"num_of_people":0.0069241982507288625,"start":18,"date":"2016-5-28","venue":"吉祥寺 CLUB SEATA","longitude":139.5818774,"latitude":35.7055584},{"num_of_people":0.021501457725947522,"start":18,"date":"2016-5-28","venue":"山野美容専門学校 山野ホール","longitude":139.6997279,"latitude":35.6841578},{"num_of_people":0.05464650145772595,"start":18,"date":"2016-5-28","venue":"日比谷野外大音楽堂","longitude":139.7543263,"latitude":35.6728275},{"num_of_people":0.006158892128279883,"start":18,"date":"2016-5-28","venue":"PARCO劇場(パルコ劇場)","longitude":139.69904,"latitude":35.6605134},{"num_of_people":0.004045189504373178,"start":18,"date":"2016-5-28","venue":"新宿明治安田生命ホール","longitude":139.6979181,"latitude":35.6905359},{"num_of_people":0.0023688046647230322,"start":18,"date":"2016-5-28","venue":"日本橋三井ホール","longitude":139.775383,"latitude":35.6854294},{"num_of_people":0.02193877551020408,"start":18,"date":"2016-5-28","venue":"赤坂ACTシアター","longitude":139.7360778,"latitude":35.6757238},{"num_of_people":0.052478134110787174,"start":18,"date":"2016-5-28","venue":"TOKYO DOME CITY HALL","longitude":139.753828,"latitude":35.7049895},{"num_of_people":0.9083454810495627,"start":18,"date":"2016-5-28","venue":"味の素スタジアム","longitude":139.5254355,"latitude":35.6634009},{"num_of_people":0.0052842565597667635,"start":18,"date":"2016-5-28","venue":"科学技術館 サイエンスホール","longitude":139.753023,"latitude":35.6911892},{"num_of_people":0.04717565597667638,"start":19,"date":"2016-5-28","venue":"Zepp Tokyo(東京)","longitude":139.7818926,"latitude":35.624722},{"num_of_people":0.03064868804664723,"start":19,"date":"2016-5-28","venue":"文京シビックホール","longitude":139.7524309,"latitude":35.707951},{"num_of_people":0.18002915451895043,"start":22,"date":"2016-5-28","venue":"WOMB","longitude":139.6950487,"latitude":35.6583941},{"num_of_people":0.023833819241982506,"start":11,"date":"2016-5-29","venue":"新橋演舞場","longitude":139.7669618,"latitude":35.6668813},{"num_of_people":0.20003644314868804,"start":11,"date":"2016-5-29","venue":"両国国技館","longitude":139.7936036,"latitude":35.6972034},{"num_of_people":0.03237973760932945,"start":12,"date":"2016-5-29","venue":"帝国劇場","longitude":139.7608036,"latitude":35.6767439},{"num_of_people":0.012682215743440233,"start":12,"date":"2016-5-29","venue":"サンシャイン劇場","longitude":139.7232404,"latitude":35.7262319},{"num_of_people":0.019970845481049562,"start":13,"date":"2016-5-29","venue":"電通四季劇場[海]","longitude":139.7623483,"latitude":35.6650287},{"num_of_people":0.020681486880466473,"start":13,"date":"2016-5-29","venue":"四季劇場[春]","longitude":139.7620402,"latitude":35.6566796},{"num_of_people":0.019679300291545188,"start":13,"date":"2016-5-29","venue":"積水ハウスミュージカルシアター 四季劇場[夏]","longitude":139.7333554,"latitude":35.6082652},{"num_of_people":0.01282798833819242,"start":13,"date":"2016-5-29","venue":"AiiA Theater Tokyo","longitude":139.6998092,"latitude":35.6669377},{"num_of_people":0.0009657434402332362,"start":13,"date":"2016-5-29","venue":"赤坂RED/THEATER","longitude":139.7370814,"latitude":35.6755898},{"num_of_people":0.008746355685131196,"start":13,"date":"2016-5-29","venue":"世田谷パブリックシアター","longitude":139.669046,"latitude":35.6436557},{"num_of_people":0.006942419825072886,"start":13,"date":"2016-5-29","venue":"よみうり大手町ホール","longitude":139.7644669,"latitude":35.6871844},{"num_of_people":0.0023323615160349854,"start":13,"date":"2016-5-29","venue":"シアタートラム","longitude":139.669046,"latitude":35.6436557},{"num_of_people":0.008910349854227406,"start":13,"date":"2016-5-29","venue":"シアタークリエ","longitude":139.7596899,"latitude":35.672636},{"num_of_people":0.0032798833819241984,"start":13,"date":"2016-5-29","venue":"国立演芸場","longitude":139.7432769,"latitude":35.6815595},{"num_of_people":0.004045189504373178,"start":13,"date":"2016-5-29","venue":"新宿明治安田生命ホール","longitude":139.6979181,"latitude":35.6905359},{"num_of_people":0.052478134110787174,"start":13,"date":"2016-5-29","venue":"TOKYO DOME CITY HALL","longitude":139.753828,"latitude":35.7049895},{"num_of_people":0.05167638483965015,"start":14,"date":"2016-5-29","venue":"東京文化会館","longitude":139.7752986,"latitude":35.714415},{"num_of_people":1,"start":14,"date":"2016-5-29","venue":"東京ドーム","longitude":139.7531449,"latitude":35.7028239},{"num_of_people":0.03423833819241982,"start":14,"date":"2016-5-29","venue":"東京芸術劇場","longitude":139.7080751,"latitude":35.729842},{"num_of_people":0.002150145772594752,"start":14,"date":"2016-5-29","venue":"座・高円寺1","longitude":139.6540083,"latitude":35.7059012},{"num_of_people":0.02193877551020408,"start":14,"date":"2016-5-29","venue":"赤坂ACTシアター","longitude":139.7360778,"latitude":35.6757238},{"num_of_people":0.016034985422740525,"start":14,"date":"2016-5-29","venue":"LIQUIDROOM (リキッドルーム)","longitude":139.7105837,"latitude":35.6490402},{"num_of_people":0.021501457725947522,"start":14,"date":"2016-5-29","venue":"ラフォーレミュージアム六本木","longitude":139.7411329,"latitude":35.6633171},{"num_of_people":0.023833819241982506,"start":15,"date":"2016-5-29","venue":"新橋演舞場","longitude":139.7669618,"latitude":35.6668813},{"num_of_people":0.0014577259475218659,"start":15,"date":"2016-5-29","venue":"池袋mismatch","longitude":139.7141548,"latitude":35.7334357},{"num_of_people":0.018713556851311954,"start":16,"date":"2016-5-29","venue":"赤坂BLITZ","longitude":139.7360778,"latitude":35.6757238},{"num_of_people":0.029628279883381924,"start":16,"date":"2016-5-29","venue":"EXシアター六本木(EX THEATER ROPPONGI)","longitude":139.7271569,"latitude":35.6611948},{"num_of_people":0.06705539358600583,"start":17,"date":"2016-5-29","venue":"NHKホール","longitude":139.6968789,"latitude":35.6665599},{"num_of_people":0.041581632653061223,"start":17,"date":"2016-5-29","venue":"新木場STUDIO COAST","longitude":139.8253126,"latitude":35.6422295},{"num_of_people":0.9083454810495627,"start":17,"date":"2016-5-29","venue":"味の素スタジアム","longitude":139.5254355,"latitude":35.6634009},{"num_of_people":0.008910349854227406,"start":17,"date":"2016-5-29","venue":"シアタークリエ","longitude":139.7596899,"latitude":35.672636},{"num_of_people":0.0032798833819241984,"start":17,"date":"2016-5-29","venue":"clubasia","longitude":139.6953459,"latitude":35.6590191},{"num_of_people":0.021501457725947522,"start":17,"date":"2016-5-29","venue":"北とぴあ","longitude":139.7365219,"latitude":35.7550207},{"num_of_people":0.021501457725947522,"start":17,"date":"2016-5-29","venue":"TSUTAYA O-EAST","longitude":139.6955876,"latitude":35.658733},{"num_of_people":0.004045189504373178,"start":17,"date":"2016-5-29","venue":"新宿明治安田生命ホール","longitude":139.6979181,"latitude":35.6905359},{"num_of_people":0.04717565597667638,"start":18,"date":"2016-5-29","venue":"Zepp Tokyo(東京)","longitude":139.7818926,"latitude":35.624722},{"num_of_people":0.052478134110787174,"start":18,"date":"2016-5-29","venue":"TOKYO DOME CITY HALL","longitude":139.753828,"latitude":35.7049895},{"num_of_people":0.0032798833819241984,"start":18,"date":"2016-5-29","venue":"aube shibuya","longitude":139.6978981,"latitude":35.6624758},{"num_of_people":0.021501457725947522,"start":18,"date":"2016-5-29","venue":"ラフォーレミュージアム六本木","longitude":139.7411329,"latitude":35.6633171},{"num_of_people":0.0032798833819241984,"start":18,"date":"2016-5-29","venue":"新宿ロフトPLUS ONE","longitude":139.7015281,"latitude":35.6976677},{"num_of_people":0.007835276967930028,"start":19,"date":"2016-5-29","venue":"ヤクルトホール","longitude":139.7567015,"latitude":35.6617206},{"num_of_people":0,"start":19,"date":"2016-5-29","venue":"しもきた空間リバティ","longitude":139.6682685,"latitude":35.6611423},{"num_of_people":0.010623177842565598,"start":13,"date":"2016-5-30","venue":"東京グローブ座","longitude":139.7003548,"latitude":35.7047637},{"num_of_people":0.021829446064139942,"start":14,"date":"2016-5-30","venue":"かつしかシンフォニーヒルズ","longitude":139.8522125,"latitude":35.7424583},{"num_of_people":0.008910349854227406,"start":14,"date":"2016-5-30","venue":"シアタークリエ","longitude":139.7596899,"latitude":35.672636},{"num_of_people":0.021829446064139942,"start":18,"date":"2016-5-30","venue":"かつしかシンフォニーヒルズ","longitude":139.8522125,"latitude":35.7424583},{"num_of_people":0.2529154518950437,"start":18,"date":"2016-5-30","venue":"日本武道館","longitude":139.7497593,"latitude":35.6934055},{"num_of_people":0.010623177842565598,"start":18,"date":"2016-5-30","venue":"東京グローブ座","longitude":139.7003548,"latitude":35.7047637},{"num_of_people":0.05167638483965015,"start":19,"date":"2016-5-30","venue":"東京文化会館","longitude":139.7752986,"latitude":35.714415},{"num_of_people":0.004846938775510204,"start":19,"date":"2016-5-30","venue":"本多劇場","longitude":139.6683205,"latitude":35.6615874},{"num_of_people":0.029628279883381924,"start":19,"date":"2016-5-30","venue":"EXシアター六本木(EX THEATER ROPPONGI)","longitude":139.7271569,"latitude":35.6611948},{"num_of_people":0.008910349854227406,"start":12,"date":"2016-5-31","venue":"シアタークリエ","longitude":139.7596899,"latitude":35.672636},{"num_of_people":0.01282798833819242,"start":14,"date":"2016-5-31","venue":"AiiA Theater Tokyo","longitude":139.6998092,"latitude":35.6669377},{"num_of_people":0.0009657434402332362,"start":14,"date":"2016-5-31","venue":"赤坂RED/THEATER","longitude":139.7370814,"latitude":35.6755898},{"num_of_people":0.03237973760932945,"start":18,"date":"2016-5-31","venue":"帝国劇場","longitude":139.7608036,"latitude":35.6767439},{"num_of_people":0.2529154518950437,"start":18,"date":"2016-5-31","venue":"日本武道館","longitude":139.7497593,"latitude":35.6934055}]

ログ
[{"num_of_people":0.7387934705737997,"start":8,"date":"2016-5-21","venue":"両国国技館","longitude":139.7936036,"latitude":35.6972034},{"num_of_people":0.09742862449137653,"start":13,"date":"2016-5-21","venue":"テアトル新宿","longitude":139.7052181,"latitude":35.6922864},{"num_of_people":0.11311892934068542,"start":15,"date":"2016-5-21","venue":"TFTホール","longitude":139.7904725,"latitude":35.6309772},{"num_of_people":0.5253080401994313,"start":16,"date":"2016-5-21","venue":"TOKYO DOME CITY HALL","longitude":139.753828,"latitude":35.7049895},{"num_of_people":0.7767026914758637,"start":17,"date":"2016-5-21","venue":"日本武道館","longitude":139.7497593,"latitude":35.6934055},{"num_of_people":0.346018779072719,"start":17,"date":"2016-5-21","venue":"LIQUIDROOM (リキッドルーム)","longitude":139.7105837,"latitude":35.6490402},{"num_of_people":0.26508378386691583,"start":17,"date":"2016-5-21","venue":"シアタークリエ","longitude":139.7596899,"latitude":35.672636},{"num_of_people":0.3830864228667848,"start":17,"date":"2016-5-21","venue":"四季劇場[春]","longitude":139.7620402,"latitude":35.6566796},{"num_of_people":0.4763158151725067,"start":17,"date":"2016-5-21","venue":"中野サンプラザ","longitude":139.6646854,"latitude":35.707618},{"num_of_people":0.5316563935141161,"start":17,"date":"2016-5-21","venue":"日比谷野外大音楽堂","longitude":139.7543263,"latitude":35.6728275},{"num_of_people":0.23322591601111575,"start":17,"date":"2016-5-21","venue":"よみうり大手町ホール","longitude":139.7644669,"latitude":35.6871844},{"num_of_people":0.21570542254505748,"start":17,"date":"2016-5-21","venue":"Shibuya WWW","longitude":139.6987557,"latitude":35.6615117},{"num_of_people":1,"start":18,"date":"2016-5-21","venue":"東京ドーム","longitude":139.7531449,"latitude":35.7028239},{"num_of_people":0.7676309099606087,"start":18,"date":"2016-5-21","venue":"国立代々木競技場 第一体育館","longitude":139.6998092,"latitude":35.6669377},{"num_of_people":0.9242298244402851,"start":18,"date":"2016-5-21","venue":"神宮球場","longitude":139.716599,"latitude":35.67374849999999},{"num_of_people":0.21570542254505748,"start":18,"date":"2016-5-21","venue":"AREA","longitude":139.7016709,"latitude":35.7136295},{"num_of_people":0.346018779072719,"start":18,"date":"2016-5-21","venue":"UNIT","longitude":139.7071813,"latitude":35.6483457},{"num_of_people":0.5308170673650183,"start":18,"date":"2016-5-21","venue":"豊洲PIT","longitude":139.7889943,"latitude":35.6495585},{"num_of_people":0.7387934705737997,"start":8,"date":"2016-5-22","venue":"両国国技館","longitude":139.7936036,"latitude":35.6972034},{"num_of_people":0.45905608994789204,"start":14,"date":"2016-5-22","venue":"東京芸術劇場","longitude":139.7080751,"latitude":35.729842},{"num_of_people":0.32900558024239074,"start":14,"date":"2016-5-22","venue":"六本木ブルーシアター","longitude":139.729426,"latitude":35.6641222},{"num_of_people":0.14953509075903035,"start":14,"date":"2016-5-22","venue":"俳優座劇場","longitude":139.7327091,"latitude":35.6638057},{"num_of_people":0.23289984973203356,"start":14,"date":"2016-5-22","venue":"全電通労働会館","longitude":139.7658304,"latitude":35.69685},{"num_of_people":0.2878108126947773,"start":15,"date":"2016-5-22","venue":"品川インターシティホール","longitude":139.7418095,"latitude":35.6265605},{"num_of_people":0.5308170673650183,"start":15,"date":"2016-5-22","venue":"豊洲PIT","longitude":139.7889943,"latitude":35.6495585},{"num_of_people":0.5086566954383981,"start":15,"date":"2016-5-22","venue":"Zepp Tokyo(東京)","longitude":139.7818926,"latitude":35.624722},{"num_of_people":0.5253080401994313,"start":16,"date":"2016-5-22","venue":"TOKYO DOME CITY HALL","longitude":139.753828,"latitude":35.7049895},{"num_of_people":0.20051342684135717,"start":16,"date":"2016-5-22","venue":"科学技術館 サイエンスホール","longitude":139.753023,"latitude":35.6911892},{"num_of_people":0.9843478015547451,"start":16,"date":"2016-5-22","venue":"味の素スタジアム","longitude":139.5254355,"latitude":35.6634009},{"num_of_people":0.7767026914758637,"start":17,"date":"2016-5-22","venue":"日本武道館","longitude":139.7497593,"latitude":35.6934055},{"num_of_people":1,"start":17,"date":"2016-5-22","venue":"東京ドーム","longitude":139.7531449,"latitude":35.7028239},{"num_of_people":0.7676309099606087,"start":17,"date":"2016-5-22","venue":"国立代々木競技場 第一体育館","longitude":139.6998092,"latitude":35.6669377},{"num_of_people":0.26508378386691583,"start":17,"date":"2016-5-22","venue":"シアタークリエ","longitude":139.7596899,"latitude":35.672636},{"num_of_people":0.49878558174041915,"start":11,"date":"2016-5-23","venue":"グランドプリンスホテル新高輪 大宴会場 飛天","longitude":139.7352793,"latitude":35.6309486},{"num_of_people":0.4505089601437718,"start":13,"date":"2016-5-23","venue":"帝国劇場","longitude":139.7608036,"latitude":35.6767439},{"num_of_people":0.25824304568075945,"start":15,"date":"2016-5-23","venue":"全労済ホール/スペース・ゼロ","longitude":139.6972798,"latitude":35.6869818},{"num_of_people":0.4432076736371961,"start":17,"date":"2016-5-23","venue":"新国立劇場","longitude":139.6856683,"latitude":35.6825909},{"num_of_people":0.49878558174041915,"start":17,"date":"2016-5-23","venue":"グランドプリンスホテル新高輪 大宴会場 飛天","longitude":139.7352793,"latitude":35.6309486},{"num_of_people":1,"start":18,"date":"2016-5-23","venue":"東京ドーム","longitude":139.7531449,"latitude":35.7028239},{"num_of_people":0.44570744423838377,"start":18,"date":"2016-5-23","venue":"なかのZERO","longitude":139.6662751,"latitude":35.7078586},{"num_of_people":0.18154027775841916,"start":18,"date":"2016-5-23","venue":"クラブeX","longitude":139.735285,"latitude":35.6280212},{"num_of_people":0.5638857712105817,"start":18,"date":"2016-5-23","venue":"NHKホール","longitude":139.6968789,"latitude":35.6665599},{"num_of_people":0.4599516558283174,"start":19,"date":"2016-5-23","venue":"サントリーホール","longitude":139.7413971,"latitude":35.66663339999999},{"num_of_people":0.2626540200997158,"start":19,"date":"2016-5-23","venue":"TSUTAYA O-WEST","longitude":139.6953404,"latitude":35.6585025},{"num_of_people":0.14953509075903035,"start":19,"date":"2016-5-23","venue":"俳優座劇場","longitude":139.7327091,"latitude":35.6638057},{"num_of_people":0.42595325890372926,"start":19,"date":"2016-5-23","venue":"東京オペラシティ","longitude":139.6868265,"latitude":35.683002},{"num_of_people":0.5228967709443131,"start":19,"date":"2016-5-23","venue":"東京文化会館","longitude":139.7752986,"latitude":35.714415},{"num_of_people":0.43697245679567354,"start":19,"date":"2016-5-23","venue":"EXシアター六本木(EX THEATER ROPPONGI)","longitude":139.7271569,"latitude":35.6611948},{"num_of_people":0.4505089601437718,"start":13,"date":"2016-5-24","venue":"帝国劇場","longitude":139.7608036,"latitude":35.6767439},{"num_of_people":0.39182098673647703,"start":13,"date":"2016-5-24","venue":"赤坂ACTシアター","longitude":139.7360778,"latitude":35.6757238},{"num_of_people":0.2885087301592708,"start":14,"date":"2016-5-24","venue":"東京グローブ座","longitude":139.7003548,"latitude":35.7047637},{"num_of_people":0.19066947121311845,"start":14,"date":"2016-5-24","venue":"本多劇場","longitude":139.6683205,"latitude":35.6615874},{"num_of_people":0.2626540200997158,"start":14,"date":"2016-5-24","venue":"世田谷パブリックシアター","longitude":139.669046,"latitude":35.6436557},{"num_of_people":0.23322591601111575,"start":14,"date":"2016-5-24","venue":"よみうり大手町ホール","longitude":139.7644669,"latitude":35.6871844},{"num_of_people":0.4505089601437718,"start":18,"date":"2016-5-24","venue":"帝国劇場","longitude":139.7608036,"latitude":35.6767439},{"num_of_people":0.4041614539441325,"start":18,"date":"2016-5-24","venue":"新橋演舞場","longitude":139.7669618,"latitude":35.6668813},{"num_of_people":0.9242298244402851,"start":18,"date":"2016-5-24","venue":"神宮球場","longitude":139.716599,"latitude":35.67374849999999},{"num_of_people":0.26508378386691583,"start":18,"date":"2016-5-24","venue":"シアタークリエ","longitude":139.7596899,"latitude":35.672636},{"num_of_people":0.37793451903320624,"start":18,"date":"2016-5-24","venue":"電通四季劇場[海]","longitude":139.7623483,"latitude":35.6650287},{"num_of_people":0.39182098673647703,"start":13,"date":"2016-5-25","venue":"赤坂ACTシアター","longitude":139.7360778,"latitude":35.6757238},{"num_of_people":0.26508378386691583,"start":14,"date":"2016-5-25","venue":"シアタークリエ","longitude":139.7596899,"latitude":35.672636},{"num_of_people":0.21858119948517246,"start":14,"date":"2016-5-25","venue":"PARCO劇場(パルコ劇場)","longitude":139.69904,"latitude":35.6605134},{"num_of_people":0.44790747915245005,"start":16,"date":"2016-5-25","venue":"歌舞伎座","longitude":139.7680533,"latitude":35.6697366},{"num_of_people":0.9242298244402851,"start":18,"date":"2016-5-25","venue":"神宮球場","longitude":139.716599,"latitude":35.67374849999999},{"num_of_people":0.26508378386691583,"start":18,"date":"2016-5-25","venue":"シアタークリエ","longitude":139.7596899,"latitude":35.672636},{"num_of_people":0.45905608994789204,"start":18,"date":"2016-5-25","venue":"東京芸術劇場","longitude":139.7080751,"latitude":35.729842},{"num_of_people":0.37793451903320624,"start":18,"date":"2016-5-25","venue":"電通四季劇場[海]","longitude":139.7623483,"latitude":35.6650287},{"num_of_people":0.7676309099606087,"start":18,"date":"2016-5-25","venue":"国立代々木競技場 第一体育館","longitude":139.6998092,"latitude":35.6669377},{"num_of_people":0.23322591601111575,"start":18,"date":"2016-5-25","venue":"よみうり大手町ホール","longitude":139.7644669,"latitude":35.6871844},{"num_of_people":0.4763158151725067,"start":18,"date":"2016-5-25","venue":"中野サンプラザ","longitude":139.6646854,"latitude":35.707618},{"num_of_people":0.11978092039134816,"start":18,"date":"2016-5-25","venue":"池袋EDGE","longitude":139.7127357,"latitude":35.7291034},{"num_of_people":0.16754346536091944,"start":18,"date":"2016-5-25","venue":"シネマート新宿","longitude":139.7057766,"latitude":35.6918655},{"num_of_people":0.14953509075903035,"start":18,"date":"2016-5-25","venue":"国立演芸場","longitude":139.7432769,"latitude":35.6815595},{"num_of_people":0.4599516558283174,"start":19,"date":"2016-5-25","venue":"サントリーホール","longitude":139.7413971,"latitude":35.66663339999999},{"num_of_people":0.43697245679567354,"start":19,"date":"2016-5-25","venue":"EXシアター六本木(EX THEATER ROPPONGI)","longitude":139.7271569,"latitude":35.6611948},{"num_of_people":0.4421245095830762,"start":19,"date":"2016-5-25","venue":"新宿文化センター","longitude":139.7094319,"latitude":35.6954929},{"num_of_people":0.346018779072719,"start":19,"date":"2016-5-25","venue":"UNIT","longitude":139.7071813,"latitude":35.6483457},{"num_of_people":0.309602617654374,"start":19,"date":"2016-5-25","venue":"渋谷クラブクアトロ(CLUB QUATTRO)","longitude":139.6975651,"latitude":35.6609856},{"num_of_people":0,"start":19,"date":"2016-5-25","venue":"ムジカーザ","longitude":139.6817551,"latitude":35.67122},{"num_of_people":0.21570542254505748,"start":19,"date":"2016-5-25","venue":"Shibuya WWW","longitude":139.6987557,"latitude":35.6615117},{"num_of_people":0.11978092039134816,"start":20,"date":"2016-5-25","venue":"SHELTER","longitude":139.6694646,"latitude":35.6614799},{"num_of_people":0.4041614539441325,"start":11,"date":"2016-5-26","venue":"新橋演舞場","longitude":139.7669618,"latitude":35.6668813},{"num_of_people":0.37793451903320624,"start":13,"date":"2016-5-26","venue":"電通四季劇場[海]","longitude":139.7623483,"latitude":35.6650287},{"num_of_people":0.4432076736371961,"start":14,"date":"2016-5-26","venue":"新国立劇場","longitude":139.6856683,"latitude":35.6825909},{"num_of_people":0.26508378386691583,"start":14,"date":"2016-5-26","venue":"シアタークリエ","longitude":139.7596899,"latitude":35.672636},{"num_of_people":0.4505089601437718,"start":18,"date":"2016-5-26","venue":"帝国劇場","longitude":139.7608036,"latitude":35.6767439},{"num_of_people":0.4041614539441325,"start":18,"date":"2016-5-26","venue":"新橋演舞場","longitude":139.7669618,"latitude":35.6668813},{"num_of_people":0.9242298244402851,"start":18,"date":"2016-5-26","venue":"神宮球場","longitude":139.716599,"latitude":35.67374849999999},{"num_of_people":0.26508378386691583,"start":18,"date":"2016-5-26","venue":"シアタークリエ","longitude":139.7596899,"latitude":35.672636},{"num_of_people":0.45905608994789204,"start":18,"date":"2016-5-26","venue":"東京芸術劇場","longitude":139.7080751,"latitude":35.729842},{"num_of_people":0.3757729494404012,"start":18,"date":"2016-5-26","venue":"積水ハウスミュージカルシアター 四季劇場[夏]","longitude":139.7333554,"latitude":35.6082652},{"num_of_people":0.23322591601111575,"start":18,"date":"2016-5-26","venue":"よみうり大手町ホール","longitude":139.7644669,"latitude":35.6871844},{"num_of_people":0.39182098673647703,"start":18,"date":"2016-5-26","venue":"赤坂ACTシアター","longitude":139.7360778,"latitude":35.6757238},{"num_of_people":0.09891901036016748,"start":18,"date":"2016-5-26","venue":"古賀政男音楽博物館 けやきホール","longitude":139.6800387,"latitude":35.6678203},{"num_of_people":0.14953509075903035,"start":19,"date":"2016-5-26","venue":"LIVE HOUSE FEVER","longitude":139.6599964,"latitude":35.6627795},{"num_of_people":0.2626540200997158,"start":19,"date":"2016-5-26","venue":"世田谷パブリックシアター","longitude":139.669046,"latitude":35.6436557},{"num_of_people":0.14953509075903035,"start":19,"date":"2016-5-26","venue":"俳優座劇場","longitude":139.7327091,"latitude":35.6638057},{"num_of_people":0.21858119948517246,"start":19,"date":"2016-5-26","venue":"PARCO劇場(パルコ劇場)","longitude":139.69904,"latitude":35.6605134},{"num_of_people":0.18939615303653307,"start":19,"date":"2016-5-26","venue":"ユナイテッド・シネマとしまえん","longitude":139.6486577,"latitude":35.7423364},{"num_of_people":0.4041614539441325,"start":11,"date":"2016-5-27","venue":"新橋演舞場","longitude":139.7669618,"latitude":35.6668813},{"num_of_people":0.39715625326457493,"start":11,"date":"2016-5-27","venue":"明治座","longitude":139.7873211,"latitude":35.6877545},{"num_of_people":0.4505089601437718,"start":13,"date":"2016-5-27","venue":"帝国劇場","longitude":139.7608036,"latitude":35.6767439},{"num_of_people":0.21858119948517246,"start":13,"date":"2016-5-27","venue":"PARCO劇場(パルコ劇場)","longitude":139.69904,"latitude":35.6605134},{"num_of_people":0.11175326347673473,"start":14,"date":"2016-5-27","venue":"座・高円寺1","longitude":139.6540083,"latitude":35.7059012},{"num_of_people":0.39182098673647703,"start":14,"date":"2016-5-27","venue":"赤坂ACTシアター","longitude":139.7360778,"latitude":35.6757238},{"num_of_people":1,"start":18,"date":"2016-5-27","venue":"東京ドーム","longitude":139.7531449,"latitude":35.7028239},{"num_of_people":0.26508378386691583,"start":18,"date":"2016-5-27","venue":"シアタークリエ","longitude":139.7596899,"latitude":35.672636},{"num_of_people":0.4763158151725067,"start":18,"date":"2016-5-27","venue":"中野サンプラザ","longitude":139.6646854,"latitude":35.707618},{"num_of_people":0.5228967709443131,"start":18,"date":"2016-5-27","venue":"東京文化会館","longitude":139.7752986,"latitude":35.714415},{"num_of_people":0.5638857712105817,"start":18,"date":"2016-5-27","venue":"NHKホール","longitude":139.6968789,"latitude":35.6665599},{"num_of_people":0.23322591601111575,"start":18,"date":"2016-5-27","venue":"よみうり大手町ホール","longitude":139.7644669,"latitude":35.6871844},{"num_of_people":0.7767026914758637,"start":18,"date":"2016-5-27","venue":"日本武道館","longitude":139.7497593,"latitude":35.6934055},{"num_of_people":0.7676309099606087,"start":18,"date":"2016-5-27","venue":"国立代々木競技場 第一体育館","longitude":139.6998092,"latitude":35.6669377},{"num_of_people":0.48902781891255404,"start":18,"date":"2016-5-27","venue":"新木場STUDIO COAST","longitude":139.8253126,"latitude":35.6422295},{"num_of_people":0.03641616141834494,"start":18,"date":"2016-5-27","venue":"shibuya eggman","longitude":139.6995259,"latitude":35.6644158},{"num_of_people":0.3144264994444659,"start":19,"date":"2016-5-27","venue":"AiiA Theater Tokyo","longitude":139.6998092,"latitude":35.6669377},{"num_of_people":0.3684011002962297,"start":19,"date":"2016-5-27","venue":"赤坂BLITZ","longitude":139.7360778,"latitude":35.6757238},{"num_of_people":0.5253080401994313,"start":19,"date":"2016-5-27","venue":"TOKYO DOME CITY HALL","longitude":139.753828,"latitude":35.7049895},{"num_of_people":0.5086566954383981,"start":19,"date":"2016-5-27","venue":"Zepp Tokyo(東京)","longitude":139.7818926,"latitude":35.624722},{"num_of_people":0.2878108126947773,"start":19,"date":"2016-5-27","venue":"duo MUSIC EXCHANGE","longitude":139.6955447,"latitude":35.6589847},{"num_of_people":0.013062659197784661,"start":19,"date":"2016-5-27","venue":"ウエストエンドスタジオ","longitude":139.6685077,"latitude":35.7136292},{"num_of_people":0.14953509075903035,"start":19,"date":"2016-5-27","venue":"新宿ANTIKNOCK","longitude":139.7036079,"latitude":35.6885352},{"num_of_people":0.40966738737376646,"start":19,"date":"2016-5-27","venue":"大田区民ホール・アプリコ","longitude":139.7178454,"latitude":35.5601542},{"num_of_people":0.11978092039134816,"start":19,"date":"2016-5-27","venue":"Shibuya Milkyway","longitude":139.6978981,"latitude":35.6624758},{"num_of_people":0.11243752493365639,"start":19,"date":"2016-5-27","venue":"吉祥寺シアター","longitude":139.5835675,"latitude":35.7037669},{"num_of_people":0.14953509075903035,"start":0,"date":"2016-5-28","venue":"新宿ロフトPLUS ONE","longitude":139.7015281,"latitude":35.6976677},{"num_of_people":0.4041614539441325,"start":11,"date":"2016-5-28","venue":"新橋演舞場","longitude":139.7669618,"latitude":35.6668813},{"num_of_people":0.8704825472011929,"start":11,"date":"2016-5-28","venue":"秩父宮ラグビー場","longitude":139.717949,"latitude":35.6717432},{"num_of_people":0.19648368831368862,"start":12,"date":"2016-5-28","venue":"原宿アストロホール","longitude":139.7065745,"latitude":35.6694569},{"num_of_people":0.1746918833540919,"start":12,"date":"2016-5-28","venue":"初台TheDOORS","longitude":139.6855544,"latitude":35.6813605},{"num_of_people":0.3757729494404012,"start":13,"date":"2016-5-28","venue":"積水ハウスミュージカルシアター 四季劇場[夏]","longitude":139.7333554,"latitude":35.6082652},{"num_of_people":0.3144264994444659,"start":13,"date":"2016-5-28","venue":"AiiA Theater Tokyo","longitude":139.6998092,"latitude":35.6669377},{"num_of_people":0.2626540200997158,"start":13,"date":"2016-5-28","venue":"世田谷パブリックシアター","longitude":139.669046,"latitude":35.6436557},{"num_of_people":0.23322591601111575,"start":13,"date":"2016-5-28","venue":"よみうり大手町ホール","longitude":139.7644669,"latitude":35.6871844},{"num_of_people":0.11978092039134816,"start":13,"date":"2016-5-28","venue":"日本橋三井ホール","longitude":139.775383,"latitude":35.6854294},{"num_of_people":0.21858119948517246,"start":13,"date":"2016-5-28","venue":"PARCO劇場(パルコ劇場)","longitude":139.69904,"latitude":35.6605134},{"num_of_people":0.44570744423838377,"start":13,"date":"2016-5-28","venue":"なかのZERO","longitude":139.6662751,"latitude":35.7078586},{"num_of_people":0.28827642247820623,"start":13,"date":"2016-5-28","venue":"秋川キララホール","longitude":139.2881831,"latitude":35.7310813},{"num_of_people":0.5253080401994313,"start":13,"date":"2016-5-28","venue":"東京ビッグサイト","longitude":139.7942868,"latitude":35.6298179},{"num_of_people":0.5228967709443131,"start":14,"date":"2016-5-28","venue":"東京文化会館","longitude":139.7752986,"latitude":35.714415},{"num_of_people":0.44203392056138263,"start":14,"date":"2016-5-28","venue":"すみだトリフォニーホール","longitude":139.8101903,"latitude":35.69726740000001},{"num_of_people":0.36451358061711764,"start":14,"date":"2016-5-28","venue":"サンパール荒川","longitude":139.7851078,"latitude":35.7352135},{"num_of_people":0.5253080401994313,"start":14,"date":"2016-5-28","venue":"TOKYO DOME CITY HALL","longitude":139.753828,"latitude":35.7049895},{"num_of_people":0.38883560863818584,"start":14,"date":"2016-5-28","venue":"山野美容専門学校 山野ホール","longitude":139.6997279,"latitude":35.6841578},{"num_of_people":0.4041614539441325,"start":15,"date":"2016-5-28","venue":"新橋演舞場","longitude":139.7669618,"latitude":35.6668813},{"num_of_people":0.5086566954383981,"start":15,"date":"2016-5-28","venue":"Zepp Tokyo(東京)","longitude":139.7818926,"latitude":35.624722},{"num_of_people":0.35583566578286197,"start":15,"date":"2016-5-28","venue":"福生市民会館(もくせいホール)","longitude":139.3378372,"latitude":35.7340069},{"num_of_people":0.20051342684135717,"start":15,"date":"2016-5-28","venue":"科学技術館 サイエンスホール","longitude":139.753023,"latitude":35.6911892},{"num_of_people":0.16754346536091944,"start":15,"date":"2016-5-28","venue":"シネマート新宿","longitude":139.7057766,"latitude":35.6918655},{"num_of_people":0.5253080401994313,"start":15,"date":"2016-5-28","venue":"東京ビッグサイト","longitude":139.7942868,"latitude":35.6298179},{"num_of_people":0.2017031972512113,"start":16,"date":"2016-5-28","venue":"ユナイテッド・シネマ豊洲","longitude":139.7927659,"latitude":35.6551414},{"num_of_people":0.4505089601437718,"start":17,"date":"2016-5-28","venue":"帝国劇場","longitude":139.7608036,"latitude":35.6767439},{"num_of_people":0.43697245679567354,"start":17,"date":"2016-5-28","venue":"EXシアター六本木(EX THEATER ROPPONGI)","longitude":139.7271569,"latitude":35.6611948},{"num_of_people":0.2885087301592708,"start":17,"date":"2016-5-28","venue":"東京グローブ座","longitude":139.7003548,"latitude":35.7047637},{"num_of_people":0.05969711590781936,"start":17,"date":"2016-5-28","venue":"赤坂RED/THEATER","longitude":139.7370814,"latitude":35.6755898},{"num_of_people":0.2626540200997158,"start":17,"date":"2016-5-28","venue":"世田谷パブリックシアター","longitude":139.669046,"latitude":35.6436557},{"num_of_people":0.309602617654374,"start":17,"date":"2016-5-28","venue":"新宿BLAZE","longitude":139.7010693,"latitude":35.6952791},{"num_of_people":0.26508378386691583,"start":17,"date":"2016-5-28","venue":"シアタークリエ","longitude":139.7596899,"latitude":35.672636},{"num_of_people":0.3910797464687201,"start":17,"date":"2016-5-28","venue":"かつしかシンフォニーヒルズ","longitude":139.8522125,"latitude":35.7424583},{"num_of_people":0.31283432956304386,"start":17,"date":"2016-5-28","venue":"サンシャイン劇場","longitude":139.7232404,"latitude":35.7262319},{"num_of_people":0.5253080401994313,"start":17,"date":"2016-5-28","venue":"東京ビッグサイト","longitude":139.7942868,"latitude":35.6298179},{"num_of_people":0.3684011002962297,"start":17,"date":"2016-5-28","venue":"赤坂BLITZ","longitude":139.7360778,"latitude":35.6757238},{"num_of_people":0.4763158151725067,"start":17,"date":"2016-5-28","venue":"中野サンプラザ","longitude":139.6646854,"latitude":35.707618},{"num_of_people":0.3830864228667848,"start":17,"date":"2016-5-28","venue":"四季劇場[春]","longitude":139.7620402,"latitude":35.6566796},{"num_of_people":0.3757729494404012,"start":17,"date":"2016-5-28","venue":"積水ハウスミュージカルシアター 四季劇場[夏]","longitude":139.7333554,"latitude":35.6082652},{"num_of_people":0.23322591601111575,"start":17,"date":"2016-5-28","venue":"よみうり大手町ホール","longitude":139.7644669,"latitude":35.6871844},{"num_of_people":0.4432076736371961,"start":18,"date":"2016-5-28","venue":"新国立劇場","longitude":139.6856683,"latitude":35.6825909},{"num_of_people":0.3144264994444659,"start":18,"date":"2016-5-28","venue":"AiiA Theater Tokyo","longitude":139.6998092,"latitude":35.6669377},{"num_of_people":0.5638857712105817,"start":18,"date":"2016-5-28","venue":"NHKホール","longitude":139.6968789,"latitude":35.6665599},{"num_of_people":0.4599516558283174,"start":18,"date":"2016-5-28","venue":"サントリーホール","longitude":139.7413971,"latitude":35.66663339999999},{"num_of_people":0.38883560863818584,"start":18,"date":"2016-5-28","venue":"TSUTAYA O-EAST","longitude":139.6955876,"latitude":35.658733},{"num_of_people":0.23289984973203356,"start":18,"date":"2016-5-28","venue":"吉祥寺 CLUB SEATA","longitude":139.5818774,"latitude":35.7055584},{"num_of_people":0.38883560863818584,"start":18,"date":"2016-5-28","venue":"山野美容専門学校 山野ホール","longitude":139.6997279,"latitude":35.6841578},{"num_of_people":0.5316563935141161,"start":18,"date":"2016-5-28","venue":"日比谷野外大音楽堂","longitude":139.7543263,"latitude":35.6728275},{"num_of_people":0.21858119948517246,"start":18,"date":"2016-5-28","venue":"PARCO劇場(パルコ劇場)","longitude":139.69904,"latitude":35.6605134},{"num_of_people":0.1709183945832041,"start":18,"date":"2016-5-28","venue":"新宿明治安田生命ホール","longitude":139.6979181,"latitude":35.6905359},{"num_of_people":0.11978092039134816,"start":18,"date":"2016-5-28","venue":"日本橋三井ホール","longitude":139.775383,"latitude":35.6854294},{"num_of_people":0.39182098673647703,"start":18,"date":"2016-5-28","venue":"赤坂ACTシアター","longitude":139.7360778,"latitude":35.6757238},{"num_of_people":0.5253080401994313,"start":18,"date":"2016-5-28","venue":"TOKYO DOME CITY HALL","longitude":139.753828,"latitude":35.7049895},{"num_of_people":0.9843478015547451,"start":18,"date":"2016-5-28","venue":"味の素スタジアム","longitude":139.5254355,"latitude":35.6634009},{"num_of_people":0.20051342684135717,"start":18,"date":"2016-5-28","venue":"科学技術館 サイエンスホール","longitude":139.753023,"latitude":35.6911892},{"num_of_people":0.5086566954383981,"start":19,"date":"2016-5-28","venue":"Zepp Tokyo(東京)","longitude":139.7818926,"latitude":35.624722},{"num_of_people":0.4421245095830762,"start":19,"date":"2016-5-28","venue":"文京シビックホール","longitude":139.7524309,"latitude":35.707951},{"num_of_people":0.7217917285131203,"start":22,"date":"2016-5-28","venue":"WOMB","longitude":139.6950487,"latitude":35.6583941},{"num_of_people":0.4041614539441325,"start":11,"date":"2016-5-29","venue":"新橋演舞場","longitude":139.7669618,"latitude":35.6668813},{"num_of_people":0.7387934705737997,"start":11,"date":"2016-5-29","venue":"両国国技館","longitude":139.7936036,"latitude":35.6972034},{"num_of_people":0.4505089601437718,"start":12,"date":"2016-5-29","venue":"帝国劇場","longitude":139.7608036,"latitude":35.6767439},{"num_of_people":0.31283432956304386,"start":12,"date":"2016-5-29","venue":"サンシャイン劇場","longitude":139.7232404,"latitude":35.7262319},{"num_of_people":0.37793451903320624,"start":13,"date":"2016-5-29","venue":"電通四季劇場[海]","longitude":139.7623483,"latitude":35.6650287},{"num_of_people":0.3830864228667848,"start":13,"date":"2016-5-29","venue":"四季劇場[春]","longitude":139.7620402,"latitude":35.6566796},{"num_of_people":0.3757729494404012,"start":13,"date":"2016-5-29","venue":"積水ハウスミュージカルシアター 四季劇場[夏]","longitude":139.7333554,"latitude":35.6082652},{"num_of_people":0.3144264994444659,"start":13,"date":"2016-5-29","venue":"AiiA Theater Tokyo","longitude":139.6998092,"latitude":35.6669377},{"num_of_people":0.05969711590781936,"start":13,"date":"2016-5-29","venue":"赤坂RED/THEATER","longitude":139.7370814,"latitude":35.6755898},{"num_of_people":0.2626540200997158,"start":13,"date":"2016-5-29","venue":"世田谷パブリックシアター","longitude":139.669046,"latitude":35.6436557},{"num_of_people":0.23322591601111575,"start":13,"date":"2016-5-29","venue":"よみうり大手町ホール","longitude":139.7644669,"latitude":35.6871844},{"num_of_people":0.11847010114810888,"start":13,"date":"2016-5-29","venue":"シアタートラム","longitude":139.669046,"latitude":35.6436557},{"num_of_people":0.26508378386691583,"start":13,"date":"2016-5-29","venue":"シアタークリエ","longitude":139.7596899,"latitude":35.672636},{"num_of_people":0.14953509075903035,"start":13,"date":"2016-5-29","venue":"国立演芸場","longitude":139.7432769,"latitude":35.6815595},{"num_of_people":0.1709183945832041,"start":13,"date":"2016-5-29","venue":"新宿明治安田生命ホール","longitude":139.6979181,"latitude":35.6905359},{"num_of_people":0.5253080401994313,"start":13,"date":"2016-5-29","venue":"TOKYO DOME CITY HALL","longitude":139.753828,"latitude":35.7049895},{"num_of_people":0.5228967709443131,"start":14,"date":"2016-5-29","venue":"東京文化会館","longitude":139.7752986,"latitude":35.714415},{"num_of_people":1,"start":14,"date":"2016-5-29","venue":"東京ドーム","longitude":139.7531449,"latitude":35.7028239},{"num_of_people":0.45905608994789204,"start":14,"date":"2016-5-29","venue":"東京芸術劇場","longitude":139.7080751,"latitude":35.729842},{"num_of_people":0.11175326347673473,"start":14,"date":"2016-5-29","venue":"座・高円寺1","longitude":139.6540083,"latitude":35.7059012},{"num_of_people":0.39182098673647703,"start":14,"date":"2016-5-29","venue":"赤坂ACTシアター","longitude":139.7360778,"latitude":35.6757238},{"num_of_people":0.346018779072719,"start":14,"date":"2016-5-29","venue":"LIQUIDROOM (リキッドルーム)","longitude":139.7105837,"latitude":35.6490402},{"num_of_people":0.38883560863818584,"start":14,"date":"2016-5-29","venue":"ラフォーレミュージアム六本木","longitude":139.7411329,"latitude":35.6633171},{"num_of_people":0.4041614539441325,"start":15,"date":"2016-5-29","venue":"新橋演舞場","longitude":139.7669618,"latitude":35.6668813},{"num_of_people":0.08336475897300322,"start":15,"date":"2016-5-29","venue":"池袋mismatch","longitude":139.7141548,"latitude":35.7334357},{"num_of_people":0.3684011002962297,"start":16,"date":"2016-5-29","venue":"赤坂BLITZ","longitude":139.7360778,"latitude":35.6757238},{"num_of_people":0.43697245679567354,"start":16,"date":"2016-5-29","venue":"EXシアター六本木(EX THEATER ROPPONGI)","longitude":139.7271569,"latitude":35.6611948},{"num_of_people":0.5638857712105817,"start":17,"date":"2016-5-29","venue":"NHKホール","longitude":139.6968789,"latitude":35.6665599},{"num_of_people":0.48902781891255404,"start":17,"date":"2016-5-29","venue":"新木場STUDIO COAST","longitude":139.8253126,"latitude":35.6422295},{"num_of_people":0.9843478015547451,"start":17,"date":"2016-5-29","venue":"味の素スタジアム","longitude":139.5254355,"latitude":35.6634009},{"num_of_people":0.26508378386691583,"start":17,"date":"2016-5-29","venue":"シアタークリエ","longitude":139.7596899,"latitude":35.672636},{"num_of_people":0.14953509075903035,"start":17,"date":"2016-5-29","venue":"clubasia","longitude":139.6953459,"latitude":35.6590191},{"num_of_people":0.38883560863818584,"start":17,"date":"2016-5-29","venue":"北とぴあ","longitude":139.7365219,"latitude":35.7550207},{"num_of_people":0.38883560863818584,"start":17,"date":"2016-5-29","venue":"TSUTAYA O-EAST","longitude":139.6955876,"latitude":35.658733},{"num_of_people":0.1709183945832041,"start":17,"date":"2016-5-29","venue":"新宿明治安田生命ホール","longitude":139.6979181,"latitude":35.6905359},{"num_of_people":0.5086566954383981,"start":18,"date":"2016-5-29","venue":"Zepp Tokyo(東京)","longitude":139.7818926,"latitude":35.624722},{"num_of_people":0.5253080401994313,"start":18,"date":"2016-5-29","venue":"TOKYO DOME CITY HALL","longitude":139.753828,"latitude":35.7049895},{"num_of_people":0.14953509075903035,"start":18,"date":"2016-5-29","venue":"aube shibuya","longitude":139.6978981,"latitude":35.6624758},{"num_of_people":0.38883560863818584,"start":18,"date":"2016-5-29","venue":"ラフォーレミュージアム六本木","longitude":139.7411329,"latitude":35.6633171},{"num_of_people":0.14953509075903035,"start":18,"date":"2016-5-29","venue":"新宿ロフトPLUS ONE","longitude":139.7015281,"latitude":35.6976677},{"num_of_people":0.24845410111919766,"start":19,"date":"2016-5-29","venue":"ヤクルトホール","longitude":139.7567015,"latitude":35.6617206},{"num_of_people":0,"start":19,"date":"2016-5-29","venue":"しもきた空間リバティ","longitude":139.6682685,"latitude":35.6611423},{"num_of_people":0.2885087301592708,"start":13,"date":"2016-5-30","venue":"東京グローブ座","longitude":139.7003548,"latitude":35.7047637},{"num_of_people":0.3910797464687201,"start":14,"date":"2016-5-30","venue":"かつしかシンフォニーヒルズ","longitude":139.8522125,"latitude":35.7424583},{"num_of_people":0.26508378386691583,"start":14,"date":"2016-5-30","venue":"シアタークリエ","longitude":139.7596899,"latitude":35.672636},{"num_of_people":0.3910797464687201,"start":18,"date":"2016-5-30","venue":"かつしかシンフォニーヒルズ","longitude":139.8522125,"latitude":35.7424583},{"num_of_people":0.7767026914758637,"start":18,"date":"2016-5-30","venue":"日本武道館","longitude":139.7497593,"latitude":35.6934055},{"num_of_people":0.2885087301592708,"start":18,"date":"2016-5-30","venue":"東京グローブ座","longitude":139.7003548,"latitude":35.7047637},{"num_of_people":0.5228967709443131,"start":19,"date":"2016-5-30","venue":"東京文化会館","longitude":139.7752986,"latitude":35.714415},{"num_of_people":0.19066947121311845,"start":19,"date":"2016-5-30","venue":"本多劇場","longitude":139.6683205,"latitude":35.6615874},{"num_of_people":0.43697245679567354,"start":19,"date":"2016-5-30","venue":"EXシアター六本木(EX THEATER ROPPONGI)","longitude":139.7271569,"latitude":35.6611948},{"num_of_people":0.26508378386691583,"start":12,"date":"2016-5-31","venue":"シアタークリエ","longitude":139.7596899,"latitude":35.672636},{"num_of_people":0.3144264994444659,"start":14,"date":"2016-5-31","venue":"AiiA Theater Tokyo","longitude":139.6998092,"latitude":35.6669377},{"num_of_people":0.05969711590781936,"start":14,"date":"2016-5-31","venue":"赤坂RED/THEATER","longitude":139.7370814,"latitude":35.6755898},{"num_of_people":0.4505089601437718,"start":18,"date":"2016-5-31","venue":"帝国劇場","longitude":139.7608036,"latitude":35.6767439},{"num_of_people":0.7767026914758637,"start":18,"date":"2016-5-31","venue":"日本武道館","longitude":139.7497593,"latitude":35.6934055}]

平方根
[{"num_of_people":0.42221291319892423,"start":8,"date":"2016-5-21","venue":"両国国技館","longitude":139.7936036,"latitude":35.6972034},{"num_of_people":0.017043585201464595,"start":13,"date":"2016-5-21","venue":"テアトル新宿","longitude":139.7052181,"latitude":35.6922864},{"num_of_people":0.020295909924721862,"start":15,"date":"2016-5-21","venue":"TFTホール","longitude":139.7904725,"latitude":35.6309772},{"num_of_people":0.19599464400386485,"start":16,"date":"2016-5-21","venue":"TOKYO DOME CITY HALL","longitude":139.753828,"latitude":35.7049895},{"num_of_people":0.4802473665264534,"start":17,"date":"2016-5-21","venue":"日本武道館","longitude":139.7497593,"latitude":35.6934055},{"num_of_people":0.0924482895932291,"start":17,"date":"2016-5-21","venue":"LIQUIDROOM (リキッドルーム)","longitude":139.7105837,"latitude":35.6490402},{"num_of_people":0.06138434972953347,"start":17,"date":"2016-5-21","venue":"シアタークリエ","longitude":139.7596899,"latitude":35.672636},{"num_of_people":0.10945980671110618,"start":17,"date":"2016-5-21","venue":"四季劇場[春]","longitude":139.7620402,"latitude":35.6566796},{"num_of_people":0.16184746039467515,"start":17,"date":"2016-5-21","venue":"中野サンプラザ","longitude":139.6646854,"latitude":35.707618},{"num_of_people":0.2008064250906612,"start":17,"date":"2016-5-21","venue":"日比谷野外大音楽堂","longitude":139.7543263,"latitude":35.6728275},{"num_of_people":0.05111940508118881,"start":17,"date":"2016-5-21","venue":"よみうり大手町ホール","longitude":139.7644669,"latitude":35.6871844},{"num_of_people":0.045886838020636284,"start":17,"date":"2016-5-21","venue":"Shibuya WWW","longitude":139.6987557,"latitude":35.6615117},{"num_of_people":1,"start":18,"date":"2016-5-21","venue":"東京ドーム","longitude":139.7531449,"latitude":35.7028239},{"num_of_people":0.4657399883157816,"start":18,"date":"2016-5-21","venue":"国立代々木競技場 第一体育館","longitude":139.6998092,"latitude":35.6669377},{"num_of_people":0.7826805412673241,"start":18,"date":"2016-5-21","venue":"神宮球場","longitude":139.716599,"latitude":35.67374849999999},{"num_of_people":0.045886838020636284,"start":18,"date":"2016-5-21","venue":"AREA","longitude":139.7016709,"latitude":35.7136295},{"num_of_people":0.0924482895932291,"start":18,"date":"2016-5-21","venue":"UNIT","longitude":139.7071813,"latitude":35.6483457},{"num_of_people":0.20016487003824313,"start":18,"date":"2016-5-21","venue":"豊洲PIT","longitude":139.7889943,"latitude":35.6495585},{"num_of_people":0.42221291319892423,"start":8,"date":"2016-5-22","venue":"両国国技館","longitude":139.7936036,"latitude":35.6972034},{"num_of_people":0.15098751958399587,"start":14,"date":"2016-5-22","venue":"東京芸術劇場","longitude":139.7080751,"latitude":35.729842},{"num_of_people":0.08526422697999989,"start":14,"date":"2016-5-22","venue":"六本木ブルーシアター","longitude":139.729426,"latitude":35.6641222},{"num_of_people":0.028475024529793322,"start":14,"date":"2016-5-22","venue":"俳優座劇場","longitude":139.7327091,"latitude":35.6638057},{"num_of_people":0.051019436942347854,"start":14,"date":"2016-5-22","venue":"全電通労働会館","longitude":139.7658304,"latitude":35.69685},{"num_of_people":0.0693443484363373,"start":15,"date":"2016-5-22","venue":"品川インターシティホール","longitude":139.7418095,"latitude":35.6265605},{"num_of_people":0.20016487003824313,"start":15,"date":"2016-5-22","venue":"豊洲PIT","longitude":139.7889943,"latitude":35.6495585},{"num_of_people":0.1838094417488366,"start":15,"date":"2016-5-22","venue":"Zepp Tokyo(東京)","longitude":139.7818926,"latitude":35.624722},{"num_of_people":0.19599464400386485,"start":16,"date":"2016-5-22","venue":"TOKYO DOME CITY HALL","longitude":139.753828,"latitude":35.7049895},{"num_of_people":0.04157157876509965,"start":16,"date":"2016-5-22","venue":"科学技術館 サイエンスホール","longitude":139.753023,"latitude":35.6911892},{"num_of_people":0.9508822191166928,"start":16,"date":"2016-5-22","venue":"味の素スタジアム","longitude":139.5254355,"latitude":35.6634009},{"num_of_people":0.4802473665264534,"start":17,"date":"2016-5-22","venue":"日本武道館","longitude":139.7497593,"latitude":35.6934055},{"num_of_people":1,"start":17,"date":"2016-5-22","venue":"東京ドーム","longitude":139.7531449,"latitude":35.7028239},{"num_of_people":0.4657399883157816,"start":17,"date":"2016-5-22","venue":"国立代々木競技場 第一体育館","longitude":139.6998092,"latitude":35.6669377},{"num_of_people":0.06138434972953347,"start":17,"date":"2016-5-22","venue":"シアタークリエ","longitude":139.7596899,"latitude":35.672636},{"num_of_people":0.1768740057221494,"start":11,"date":"2016-5-23","venue":"グランドプリンスホテル新高輪 大宴会場 飛天","longitude":139.7352793,"latitude":35.6309486},{"num_of_people":0.14581851986883435,"start":13,"date":"2016-5-23","venue":"帝国劇場","longitude":139.7608036,"latitude":35.6767439},{"num_of_people":0.05909494686795307,"start":15,"date":"2016-5-23","venue":"全労済ホール/スペース・ゼロ","longitude":139.6972798,"latitude":35.6869818},{"num_of_people":0.14150890592478,"start":17,"date":"2016-5-23","venue":"新国立劇場","longitude":139.6856683,"latitude":35.6825909},{"num_of_people":0.1768740057221494,"start":17,"date":"2016-5-23","venue":"グランドプリンスホテル新高輪 大宴会場 飛天","longitude":139.7352793,"latitude":35.6309486},{"num_of_people":1,"start":18,"date":"2016-5-23","venue":"東京ドーム","longitude":139.7531449,"latitude":35.7028239},{"num_of_people":0.14297356556130184,"start":18,"date":"2016-5-23","venue":"なかのZERO","longitude":139.6662751,"latitude":35.7078586},{"num_of_people":0.03645683934175488,"start":18,"date":"2016-5-23","venue":"クラブeX","longitude":139.735285,"latitude":35.6280212},{"num_of_people":0.22673220662742893,"start":18,"date":"2016-5-23","venue":"NHKホール","longitude":139.6968789,"latitude":35.6665599},{"num_of_people":0.15153700182018245,"start":19,"date":"2016-5-23","venue":"サントリーホール","longitude":139.7413971,"latitude":35.66663339999999},{"num_of_people":0.06056567580366213,"start":19,"date":"2016-5-23","venue":"TSUTAYA O-WEST","longitude":139.6953404,"latitude":35.6585025},{"num_of_people":0.028475024529793322,"start":19,"date":"2016-5-23","venue":"俳優座劇場","longitude":139.7327091,"latitude":35.6638057},{"num_of_people":0.13169947237752624,"start":19,"date":"2016-5-23","venue":"東京オペラシティ","longitude":139.6868265,"latitude":35.683002},{"num_of_people":0.19419139007959244,"start":19,"date":"2016-5-23","venue":"東京文化会館","longitude":139.7752986,"latitude":35.714415},{"num_of_people":0.13790409646227905,"start":19,"date":"2016-5-23","venue":"EXシアター六本木(EX THEATER ROPPONGI)","longitude":139.7271569,"latitude":35.6611948},{"num_of_people":0.14581851986883435,"start":13,"date":"2016-5-24","venue":"帝国劇場","longitude":139.7608036,"latitude":35.6767439},{"num_of_people":0.1137575540511579,"start":13,"date":"2016-5-24","venue":"赤坂ACTシアター","longitude":139.7360778,"latitude":35.6757238},{"num_of_people":0.06959766947420025,"start":14,"date":"2016-5-24","venue":"東京グローブ座","longitude":139.7003548,"latitude":35.7047637},{"num_of_people":0.0388807710369409,"start":14,"date":"2016-5-24","venue":"本多劇場","longitude":139.6683205,"latitude":35.6615874},{"num_of_people":0.06056567580366213,"start":14,"date":"2016-5-24","venue":"世田谷パブリックシアター","longitude":139.669046,"latitude":35.6436557},{"num_of_people":0.05111940508118881,"start":14,"date":"2016-5-24","venue":"よみうり大手町ホール","longitude":139.7644669,"latitude":35.6871844},{"num_of_people":0.14581851986883435,"start":18,"date":"2016-5-24","venue":"帝国劇場","longitude":139.7608036,"latitude":35.6767439},{"num_of_people":0.12002896538200862,"start":18,"date":"2016-5-24","venue":"新橋演舞場","longitude":139.7669618,"latitude":35.6668813},{"num_of_people":0.7826805412673241,"start":18,"date":"2016-5-24","venue":"神宮球場","longitude":139.716599,"latitude":35.67374849999999},{"num_of_people":0.06138434972953347,"start":18,"date":"2016-5-24","venue":"シアタークリエ","longitude":139.7596899,"latitude":35.672636},{"num_of_people":0.1069782720250246,"start":18,"date":"2016-5-24","venue":"電通四季劇場[海]","longitude":139.7623483,"latitude":35.6650287},{"num_of_people":0.1137575540511579,"start":13,"date":"2016-5-25","venue":"赤坂ACTシアター","longitude":139.7360778,"latitude":35.6757238},{"num_of_people":0.06138434972953347,"start":14,"date":"2016-5-25","venue":"シアタークリエ","longitude":139.7596899,"latitude":35.672636},{"num_of_people":0.046726549070559356,"start":14,"date":"2016-5-25","venue":"PARCO劇場(パルコ劇場)","longitude":139.69904,"latitude":35.6605134},{"num_of_people":0.14427191815448798,"start":16,"date":"2016-5-25","venue":"歌舞伎座","longitude":139.7680533,"latitude":35.6697366},{"num_of_people":0.7826805412673241,"start":18,"date":"2016-5-25","venue":"神宮球場","longitude":139.716599,"latitude":35.67374849999999},{"num_of_people":0.06138434972953347,"start":18,"date":"2016-5-25","venue":"シアタークリエ","longitude":139.7596899,"latitude":35.672636},{"num_of_people":0.15098751958399587,"start":18,"date":"2016-5-25","venue":"東京芸術劇場","longitude":139.7080751,"latitude":35.729842},{"num_of_people":0.1069782720250246,"start":18,"date":"2016-5-25","venue":"電通四季劇場[海]","longitude":139.7623483,"latitude":35.6650287},{"num_of_people":0.4657399883157816,"start":18,"date":"2016-5-25","venue":"国立代々木競技場 第一体育館","longitude":139.6998092,"latitude":35.6669377},{"num_of_people":0.05111940508118881,"start":18,"date":"2016-5-25","venue":"よみうり大手町ホール","longitude":139.7644669,"latitude":35.6871844},{"num_of_people":0.16184746039467515,"start":18,"date":"2016-5-25","venue":"中野サンプラザ","longitude":139.6646854,"latitude":35.707618},{"num_of_people":0.021724814296131437,"start":18,"date":"2016-5-25","venue":"池袋EDGE","longitude":139.7127357,"latitude":35.7291034},{"num_of_people":0.032869680522805374,"start":18,"date":"2016-5-25","venue":"シネマート新宿","longitude":139.7057766,"latitude":35.6918655},{"num_of_people":0.028475024529793322,"start":18,"date":"2016-5-25","venue":"国立演芸場","longitude":139.7432769,"latitude":35.6815595},{"num_of_people":0.15153700182018245,"start":19,"date":"2016-5-25","venue":"サントリーホール","longitude":139.7413971,"latitude":35.66663339999999},{"num_of_people":0.13790409646227905,"start":19,"date":"2016-5-25","venue":"EXシアター六本木(EX THEATER ROPPONGI)","longitude":139.7271569,"latitude":35.6611948},{"num_of_people":0.14087773610509566,"start":19,"date":"2016-5-25","venue":"新宿文化センター","longitude":139.7094319,"latitude":35.6954929},{"num_of_people":0.0924482895932291,"start":19,"date":"2016-5-25","venue":"UNIT","longitude":139.7071813,"latitude":35.6483457},{"num_of_people":0.07751533769450378,"start":19,"date":"2016-5-25","venue":"渋谷クラブクアトロ(CLUB QUATTRO)","longitude":139.6975651,"latitude":35.6609856},{"num_of_people":0,"start":19,"date":"2016-5-25","venue":"ムジカーザ","longitude":139.6817551,"latitude":35.67122},{"num_of_people":0.045886838020636284,"start":19,"date":"2016-5-25","venue":"Shibuya WWW","longitude":139.6987557,"latitude":35.6615117},{"num_of_people":0.021724814296131437,"start":20,"date":"2016-5-25","venue":"SHELTER","longitude":139.6694646,"latitude":35.6614799},{"num_of_people":0.12002896538200862,"start":11,"date":"2016-5-26","venue":"新橋演舞場","longitude":139.7669618,"latitude":35.6668813},{"num_of_people":0.1069782720250246,"start":13,"date":"2016-5-26","venue":"電通四季劇場[海]","longitude":139.7623483,"latitude":35.6650287},{"num_of_people":0.14150890592478,"start":14,"date":"2016-5-26","venue":"新国立劇場","longitude":139.6856683,"latitude":35.6825909},{"num_of_people":0.06138434972953347,"start":14,"date":"2016-5-26","venue":"シアタークリエ","longitude":139.7596899,"latitude":35.672636},{"num_of_people":0.14581851986883435,"start":18,"date":"2016-5-26","venue":"帝国劇場","longitude":139.7608036,"latitude":35.6767439},{"num_of_people":0.12002896538200862,"start":18,"date":"2016-5-26","venue":"新橋演舞場","longitude":139.7669618,"latitude":35.6668813},{"num_of_people":0.7826805412673241,"start":18,"date":"2016-5-26","venue":"神宮球場","longitude":139.716599,"latitude":35.67374849999999},{"num_of_people":0.06138434972953347,"start":18,"date":"2016-5-26","venue":"シアタークリエ","longitude":139.7596899,"latitude":35.672636},{"num_of_people":0.15098751958399587,"start":18,"date":"2016-5-26","venue":"東京芸術劇場","longitude":139.7080751,"latitude":35.729842},{"num_of_people":0.10594871006055286,"start":18,"date":"2016-5-26","venue":"積水ハウスミュージカルシアター 四季劇場[夏]","longitude":139.7333554,"latitude":35.6082652},{"num_of_people":0.05111940508118881,"start":18,"date":"2016-5-26","venue":"よみうり大手町ホール","longitude":139.7644669,"latitude":35.6871844},{"num_of_people":0.1137575540511579,"start":18,"date":"2016-5-26","venue":"赤坂ACTシアター","longitude":139.7360778,"latitude":35.6757238},{"num_of_people":0.017345839623631756,"start":18,"date":"2016-5-26","venue":"古賀政男音楽博物館 けやきホール","longitude":139.6800387,"latitude":35.6678203},{"num_of_people":0.028475024529793322,"start":19,"date":"2016-5-26","venue":"LIVE HOUSE FEVER","longitude":139.6599964,"latitude":35.6627795},{"num_of_people":0.06056567580366213,"start":19,"date":"2016-5-26","venue":"世田谷パブリックシアター","longitude":139.669046,"latitude":35.6436557},{"num_of_people":0.028475024529793322,"start":19,"date":"2016-5-26","venue":"俳優座劇場","longitude":139.7327091,"latitude":35.6638057},{"num_of_people":0.046726549070559356,"start":19,"date":"2016-5-26","venue":"PARCO劇場(パルコ劇場)","longitude":139.69904,"latitude":35.6605134},{"num_of_people":0.038538604525253796,"start":19,"date":"2016-5-26","venue":"ユナイテッド・シネマとしまえん","longitude":139.6486577,"latitude":35.7423364},{"num_of_people":0.12002896538200862,"start":11,"date":"2016-5-27","venue":"新橋演舞場","longitude":139.7669618,"latitude":35.6668813},{"num_of_people":0.11643985957607086,"start":11,"date":"2016-5-27","venue":"明治座","longitude":139.7873211,"latitude":35.6877545},{"num_of_people":0.14581851986883435,"start":13,"date":"2016-5-27","venue":"帝国劇場","longitude":139.7608036,"latitude":35.6767439},{"num_of_people":0.046726549070559356,"start":13,"date":"2016-5-27","venue":"PARCO劇場(パルコ劇場)","longitude":139.69904,"latitude":35.6605134},{"num_of_people":0.020006578511047805,"start":14,"date":"2016-5-27","venue":"座・高円寺1","longitude":139.6540083,"latitude":35.7059012},{"num_of_people":0.1137575540511579,"start":14,"date":"2016-5-27","venue":"赤坂ACTシアター","longitude":139.7360778,"latitude":35.6757238},{"num_of_people":1,"start":18,"date":"2016-5-27","venue":"東京ドーム","longitude":139.7531449,"latitude":35.7028239},{"num_of_people":0.06138434972953347,"start":18,"date":"2016-5-27","venue":"シアタークリエ","longitude":139.7596899,"latitude":35.672636},{"num_of_people":0.16184746039467515,"start":18,"date":"2016-5-27","venue":"中野サンプラザ","longitude":139.6646854,"latitude":35.707618},{"num_of_people":0.19419139007959244,"start":18,"date":"2016-5-27","venue":"東京文化会館","longitude":139.7752986,"latitude":35.714415},{"num_of_people":0.22673220662742893,"start":18,"date":"2016-5-27","venue":"NHKホール","longitude":139.6968789,"latitude":35.6665599},{"num_of_people":0.05111940508118881,"start":18,"date":"2016-5-27","venue":"よみうり大手町ホール","longitude":139.7644669,"latitude":35.6871844},{"num_of_people":0.4802473665264534,"start":18,"date":"2016-5-27","venue":"日本武道館","longitude":139.7497593,"latitude":35.6934055},{"num_of_people":0.4657399883157816,"start":18,"date":"2016-5-27","venue":"国立代々木競技場 第一体育館","longitude":139.6998092,"latitude":35.6669377},{"num_of_people":0.17022129720862958,"start":18,"date":"2016-5-27","venue":"新木場STUDIO COAST","longitude":139.8253126,"latitude":35.6422295},{"num_of_people":0.005783507401347956,"start":18,"date":"2016-5-27","venue":"shibuya eggman","longitude":139.6995259,"latitude":35.6644158},{"num_of_people":0.07939902442168814,"start":19,"date":"2016-5-27","venue":"AiiA Theater Tokyo","longitude":139.6998092,"latitude":35.6669377},{"num_of_people":0.10248831562659423,"start":19,"date":"2016-5-27","venue":"赤坂BLITZ","longitude":139.7360778,"latitude":35.6757238},{"num_of_people":0.19599464400386485,"start":19,"date":"2016-5-27","venue":"TOKYO DOME CITY HALL","longitude":139.753828,"latitude":35.7049895},{"num_of_people":0.1838094417488366,"start":19,"date":"2016-5-27","venue":"Zepp Tokyo(東京)","longitude":139.7818926,"latitude":35.624722},{"num_of_people":0.0693443484363373,"start":19,"date":"2016-5-27","venue":"duo MUSIC EXCHANGE","longitude":139.6955447,"latitude":35.6589847},{"num_of_people":0.0020007623115730596,"start":19,"date":"2016-5-27","venue":"ウエストエンドスタジオ","longitude":139.6685077,"latitude":35.7136292},{"num_of_people":0.028475024529793322,"start":19,"date":"2016-5-27","venue":"新宿ANTIKNOCK","longitude":139.7036079,"latitude":35.6885352},{"num_of_people":0.12290448973353883,"start":19,"date":"2016-5-27","venue":"大田区民ホール・アプリコ","longitude":139.7178454,"latitude":35.5601542},{"num_of_people":0.021724814296131437,"start":19,"date":"2016-5-27","venue":"Shibuya Milkyway","longitude":139.6978981,"latitude":35.6624758},{"num_of_people":0.020151395542342687,"start":19,"date":"2016-5-27","venue":"吉祥寺シアター","longitude":139.5835675,"latitude":35.7037669},{"num_of_people":0.028475024529793322,"start":0,"date":"2016-5-28","venue":"新宿ロフトPLUS ONE","longitude":139.7015281,"latitude":35.6976677},{"num_of_people":0.12002896538200862,"start":11,"date":"2016-5-28","venue":"新橋演舞場","longitude":139.7669618,"latitude":35.6668813},{"num_of_people":0.6564090663961322,"start":11,"date":"2016-5-28","venue":"秩父宮ラグビー場","longitude":139.717949,"latitude":35.6717432},{"num_of_people":0.04046024539162665,"start":12,"date":"2016-5-28","venue":"原宿アストロホール","longitude":139.7065745,"latitude":35.6694569},{"num_of_people":0.0346824834781747,"start":12,"date":"2016-5-28","venue":"初台TheDOORS","longitude":139.6855544,"latitude":35.6813605},{"num_of_people":0.10594871006055286,"start":13,"date":"2016-5-28","venue":"積水ハウスミュージカルシアター 四季劇場[夏]","longitude":139.7333554,"latitude":35.6082652},{"num_of_people":0.07939902442168814,"start":13,"date":"2016-5-28","venue":"AiiA Theater Tokyo","longitude":139.6998092,"latitude":35.6669377},{"num_of_people":0.06056567580366213,"start":13,"date":"2016-5-28","venue":"世田谷パブリックシアター","longitude":139.669046,"latitude":35.6436557},{"num_of_people":0.05111940508118881,"start":13,"date":"2016-5-28","venue":"よみうり大手町ホール","longitude":139.7644669,"latitude":35.6871844},{"num_of_people":0.021724814296131437,"start":13,"date":"2016-5-28","venue":"日本橋三井ホール","longitude":139.775383,"latitude":35.6854294},{"num_of_people":0.046726549070559356,"start":13,"date":"2016-5-28","venue":"PARCO劇場(パルコ劇場)","longitude":139.69904,"latitude":35.6605134},{"num_of_people":0.14297356556130184,"start":13,"date":"2016-5-28","venue":"なかのZERO","longitude":139.6662751,"latitude":35.7078586},{"num_of_people":0.06951328929242193,"start":13,"date":"2016-5-28","venue":"秋川キララホール","longitude":139.2881831,"latitude":35.7310813},{"num_of_people":0.19599464400386485,"start":13,"date":"2016-5-28","venue":"東京ビッグサイト","longitude":139.7942868,"latitude":35.6298179},{"num_of_people":0.19419139007959244,"start":14,"date":"2016-5-28","venue":"東京文化会館","longitude":139.7752986,"latitude":35.714415},{"num_of_people":0.14082504388898293,"start":14,"date":"2016-5-28","venue":"すみだトリフォニーホール","longitude":139.8101903,"latitude":35.69726740000001},{"num_of_people":0.10069472099130602,"start":14,"date":"2016-5-28","venue":"サンパール荒川","longitude":139.7851078,"latitude":35.7352135},{"num_of_people":0.19599464400386485,"start":14,"date":"2016-5-28","venue":"TOKYO DOME CITY HALL","longitude":139.753828,"latitude":35.7049895},{"num_of_people":0.11227567602174718,"start":14,"date":"2016-5-28","venue":"山野美容専門学校 山野ホール","longitude":139.6997279,"latitude":35.6841578},{"num_of_people":0.12002896538200862,"start":15,"date":"2016-5-28","venue":"新橋演舞場","longitude":139.7669618,"latitude":35.6668813},{"num_of_people":0.1838094417488366,"start":15,"date":"2016-5-28","venue":"Zepp Tokyo(東京)","longitude":139.7818926,"latitude":35.624722},{"num_of_people":0.09676720846786839,"start":15,"date":"2016-5-28","venue":"福生市民会館(もくせいホール)","longitude":139.3378372,"latitude":35.7340069},{"num_of_people":0.04157157876509965,"start":15,"date":"2016-5-28","venue":"科学技術館 サイエンスホール","longitude":139.753023,"latitude":35.6911892},{"num_of_people":0.032869680522805374,"start":15,"date":"2016-5-28","venue":"シネマート新宿","longitude":139.7057766,"latitude":35.6918655},{"num_of_people":0.19599464400386485,"start":15,"date":"2016-5-28","venue":"東京ビッグサイト","longitude":139.7942868,"latitude":35.6298179},{"num_of_people":0.041902329371965634,"start":16,"date":"2016-5-28","venue":"ユナイテッド・シネマ豊洲","longitude":139.7927659,"latitude":35.6551414},{"num_of_people":0.14581851986883435,"start":17,"date":"2016-5-28","venue":"帝国劇場","longitude":139.7608036,"latitude":35.6767439},{"num_of_people":0.13790409646227905,"start":17,"date":"2016-5-28","venue":"EXシアター六本木(EX THEATER ROPPONGI)","longitude":139.7271569,"latitude":35.6611948},{"num_of_people":0.06959766947420025,"start":17,"date":"2016-5-28","venue":"東京グローブ座","longitude":139.7003548,"latitude":35.7047637},{"num_of_people":0.009833749208072765,"start":17,"date":"2016-5-28","venue":"赤坂RED/THEATER","longitude":139.7370814,"latitude":35.6755898},{"num_of_people":0.06056567580366213,"start":17,"date":"2016-5-28","venue":"世田谷パブリックシアター","longitude":139.669046,"latitude":35.6436557},{"num_of_people":0.07751533769450378,"start":17,"date":"2016-5-28","venue":"新宿BLAZE","longitude":139.7010693,"latitude":35.6952791},{"num_of_people":0.06138434972953347,"start":17,"date":"2016-5-28","venue":"シアタークリエ","longitude":139.7596899,"latitude":35.672636},{"num_of_people":0.11338835233168573,"start":17,"date":"2016-5-28","venue":"かつしかシンフォニーヒルズ","longitude":139.8522125,"latitude":35.7424583},{"num_of_people":0.07877421445871705,"start":17,"date":"2016-5-28","venue":"サンシャイン劇場","longitude":139.7232404,"latitude":35.7262319},{"num_of_people":0.19599464400386485,"start":17,"date":"2016-5-28","venue":"東京ビッグサイト","longitude":139.7942868,"latitude":35.6298179},{"num_of_people":0.10248831562659423,"start":17,"date":"2016-5-28","venue":"赤坂BLITZ","longitude":139.7360778,"latitude":35.6757238},{"num_of_people":0.16184746039467515,"start":17,"date":"2016-5-28","venue":"中野サンプラザ","longitude":139.6646854,"latitude":35.707618},{"num_of_people":0.10945980671110618,"start":17,"date":"2016-5-28","venue":"四季劇場[春]","longitude":139.7620402,"latitude":35.6566796},{"num_of_people":0.10594871006055286,"start":17,"date":"2016-5-28","venue":"積水ハウスミュージカルシアター 四季劇場[夏]","longitude":139.7333554,"latitude":35.6082652},{"num_of_people":0.05111940508118881,"start":17,"date":"2016-5-28","venue":"よみうり大手町ホール","longitude":139.7644669,"latitude":35.6871844},{"num_of_people":0.14150890592478,"start":18,"date":"2016-5-28","venue":"新国立劇場","longitude":139.6856683,"latitude":35.6825909},{"num_of_people":0.07939902442168814,"start":18,"date":"2016-5-28","venue":"AiiA Theater Tokyo","longitude":139.6998092,"latitude":35.6669377},{"num_of_people":0.22673220662742893,"start":18,"date":"2016-5-28","venue":"NHKホール","longitude":139.6968789,"latitude":35.6665599},{"num_of_people":0.15153700182018245,"start":18,"date":"2016-5-28","venue":"サントリーホール","longitude":139.7413971,"latitude":35.66663339999999},{"num_of_people":0.11227567602174718,"start":18,"date":"2016-5-28","venue":"TSUTAYA O-EAST","longitude":139.6955876,"latitude":35.658733},{"num_of_people":0.051019436942347854,"start":18,"date":"2016-5-28","venue":"吉祥寺 CLUB SEATA","longitude":139.5818774,"latitude":35.7055584},{"num_of_people":0.11227567602174718,"start":18,"date":"2016-5-28","venue":"山野美容専門学校 山野ホール","longitude":139.6997279,"latitude":35.6841578},{"num_of_people":0.2008064250906612,"start":18,"date":"2016-5-28","venue":"日比谷野外大音楽堂","longitude":139.7543263,"latitude":35.6728275},{"num_of_people":0.046726549070559356,"start":18,"date":"2016-5-28","venue":"PARCO劇場(パルコ劇場)","longitude":139.69904,"latitude":35.6605134},{"num_of_people":0.033720599287552326,"start":18,"date":"2016-5-28","venue":"新宿明治安田生命ホール","longitude":139.6979181,"latitude":35.6905359},{"num_of_people":0.021724814296131437,"start":18,"date":"2016-5-28","venue":"日本橋三井ホール","longitude":139.775383,"latitude":35.6854294},{"num_of_people":0.1137575540511579,"start":18,"date":"2016-5-28","venue":"赤坂ACTシアター","longitude":139.7360778,"latitude":35.6757238},{"num_of_people":0.19599464400386485,"start":18,"date":"2016-5-28","venue":"TOKYO DOME CITY HALL","longitude":139.753828,"latitude":35.7049895},{"num_of_people":0.9508822191166928,"start":18,"date":"2016-5-28","venue":"味の素スタジアム","longitude":139.5254355,"latitude":35.6634009},{"num_of_people":0.04157157876509965,"start":18,"date":"2016-5-28","venue":"科学技術館 サイエンスホール","longitude":139.753023,"latitude":35.6911892},{"num_of_people":0.1838094417488366,"start":19,"date":"2016-5-28","venue":"Zepp Tokyo(東京)","longitude":139.7818926,"latitude":35.624722},{"num_of_people":0.14087773610509566,"start":19,"date":"2016-5-28","venue":"文京シビックホール","longitude":139.7524309,"latitude":35.707951},{"num_of_people":0.3982958709619981,"start":22,"date":"2016-5-28","venue":"WOMB","longitude":139.6950487,"latitude":35.6583941},{"num_of_people":0.12002896538200862,"start":11,"date":"2016-5-29","venue":"新橋演舞場","longitude":139.7669618,"latitude":35.6668813},{"num_of_people":0.42221291319892423,"start":11,"date":"2016-5-29","venue":"両国国技館","longitude":139.7936036,"latitude":35.6972034},{"num_of_people":0.14581851986883435,"start":12,"date":"2016-5-29","venue":"帝国劇場","longitude":139.7608036,"latitude":35.6767439},{"num_of_people":0.07877421445871705,"start":12,"date":"2016-5-29","venue":"サンシャイン劇場","longitude":139.7232404,"latitude":35.7262319},{"num_of_people":0.1069782720250246,"start":13,"date":"2016-5-29","venue":"電通四季劇場[海]","longitude":139.7623483,"latitude":35.6650287},{"num_of_people":0.10945980671110618,"start":13,"date":"2016-5-29","venue":"四季劇場[春]","longitude":139.7620402,"latitude":35.6566796},{"num_of_people":0.10594871006055286,"start":13,"date":"2016-5-29","venue":"積水ハウスミュージカルシアター 四季劇場[夏]","longitude":139.7333554,"latitude":35.6082652},{"num_of_people":0.07939902442168814,"start":13,"date":"2016-5-29","venue":"AiiA Theater Tokyo","longitude":139.6998092,"latitude":35.6669377},{"num_of_people":0.009833749208072765,"start":13,"date":"2016-5-29","venue":"赤坂RED/THEATER","longitude":139.7370814,"latitude":35.6755898},{"num_of_people":0.06056567580366213,"start":13,"date":"2016-5-29","venue":"世田谷パブリックシアター","longitude":139.669046,"latitude":35.6436557},{"num_of_people":0.05111940508118881,"start":13,"date":"2016-5-29","venue":"よみうり大手町ホール","longitude":139.7644669,"latitude":35.6871844},{"num_of_people":0.021441352332609957,"start":13,"date":"2016-5-29","venue":"シアタートラム","longitude":139.669046,"latitude":35.6436557},{"num_of_people":0.06138434972953347,"start":13,"date":"2016-5-29","venue":"シアタークリエ","longitude":139.7596899,"latitude":35.672636},{"num_of_people":0.028475024529793322,"start":13,"date":"2016-5-29","venue":"国立演芸場","longitude":139.7432769,"latitude":35.6815595},{"num_of_people":0.033720599287552326,"start":13,"date":"2016-5-29","venue":"新宿明治安田生命ホール","longitude":139.6979181,"latitude":35.6905359},{"num_of_people":0.19599464400386485,"start":13,"date":"2016-5-29","venue":"TOKYO DOME CITY HALL","longitude":139.753828,"latitude":35.7049895},{"num_of_people":0.19419139007959244,"start":14,"date":"2016-5-29","venue":"東京文化会館","longitude":139.7752986,"latitude":35.714415},{"num_of_people":1,"start":14,"date":"2016-5-29","venue":"東京ドーム","longitude":139.7531449,"latitude":35.7028239},{"num_of_people":0.15098751958399587,"start":14,"date":"2016-5-29","venue":"東京芸術劇場","longitude":139.7080751,"latitude":35.729842},{"num_of_people":0.020006578511047805,"start":14,"date":"2016-5-29","venue":"座・高円寺1","longitude":139.6540083,"latitude":35.7059012},{"num_of_people":0.1137575540511579,"start":14,"date":"2016-5-29","venue":"赤坂ACTシアター","longitude":139.7360778,"latitude":35.6757238},{"num_of_people":0.0924482895932291,"start":14,"date":"2016-5-29","venue":"LIQUIDROOM (リキッドルーム)","longitude":139.7105837,"latitude":35.6490402},{"num_of_people":0.11227567602174718,"start":14,"date":"2016-5-29","venue":"ラフォーレミュージアム六本木","longitude":139.7411329,"latitude":35.6633171},{"num_of_people":0.12002896538200862,"start":15,"date":"2016-5-29","venue":"新橋演舞場","longitude":139.7669618,"latitude":35.6668813},{"num_of_people":0.014258338346768783,"start":15,"date":"2016-5-29","venue":"池袋mismatch","longitude":139.7141548,"latitude":35.7334357},{"num_of_people":0.10248831562659423,"start":16,"date":"2016-5-29","venue":"赤坂BLITZ","longitude":139.7360778,"latitude":35.6757238},{"num_of_people":0.13790409646227905,"start":16,"date":"2016-5-29","venue":"EXシアター六本木(EX THEATER ROPPONGI)","longitude":139.7271569,"latitude":35.6611948},{"num_of_people":0.22673220662742893,"start":17,"date":"2016-5-29","venue":"NHKホール","longitude":139.6968789,"latitude":35.6665599},{"num_of_people":0.17022129720862958,"start":17,"date":"2016-5-29","venue":"新木場STUDIO COAST","longitude":139.8253126,"latitude":35.6422295},{"num_of_people":0.9508822191166928,"start":17,"date":"2016-5-29","venue":"味の素スタジアム","longitude":139.5254355,"latitude":35.6634009},{"num_of_people":0.06138434972953347,"start":17,"date":"2016-5-29","venue":"シアタークリエ","longitude":139.7596899,"latitude":35.672636},{"num_of_people":0.028475024529793322,"start":17,"date":"2016-5-29","venue":"clubasia","longitude":139.6953459,"latitude":35.6590191},{"num_of_people":0.11227567602174718,"start":17,"date":"2016-5-29","venue":"北とぴあ","longitude":139.7365219,"latitude":35.7550207},{"num_of_people":0.11227567602174718,"start":17,"date":"2016-5-29","venue":"TSUTAYA O-EAST","longitude":139.6955876,"latitude":35.658733},{"num_of_people":0.033720599287552326,"start":17,"date":"2016-5-29","venue":"新宿明治安田生命ホール","longitude":139.6979181,"latitude":35.6905359},{"num_of_people":0.1838094417488366,"start":18,"date":"2016-5-29","venue":"Zepp Tokyo(東京)","longitude":139.7818926,"latitude":35.624722},{"num_of_people":0.19599464400386485,"start":18,"date":"2016-5-29","venue":"TOKYO DOME CITY HALL","longitude":139.753828,"latitude":35.7049895},{"num_of_people":0.028475024529793322,"start":18,"date":"2016-5-29","venue":"aube shibuya","longitude":139.6978981,"latitude":35.6624758},{"num_of_people":0.11227567602174718,"start":18,"date":"2016-5-29","venue":"ラフォーレミュージアム六本木","longitude":139.7411329,"latitude":35.6633171},{"num_of_people":0.028475024529793322,"start":18,"date":"2016-5-29","venue":"新宿ロフトPLUS ONE","longitude":139.7015281,"latitude":35.6976677},{"num_of_people":0.055901205099130415,"start":19,"date":"2016-5-29","venue":"ヤクルトホール","longitude":139.7567015,"latitude":35.6617206},{"num_of_people":0,"start":19,"date":"2016-5-29","venue":"しもきた空間リバティ","longitude":139.6682685,"latitude":35.6611423},{"num_of_people":0.06959766947420025,"start":13,"date":"2016-5-30","venue":"東京グローブ座","longitude":139.7003548,"latitude":35.7047637},{"num_of_people":0.11338835233168573,"start":14,"date":"2016-5-30","venue":"かつしかシンフォニーヒルズ","longitude":139.8522125,"latitude":35.7424583},{"num_of_people":0.06138434972953347,"start":14,"date":"2016-5-30","venue":"シアタークリエ","longitude":139.7596899,"latitude":35.672636},{"num_of_people":0.11338835233168573,"start":18,"date":"2016-5-30","venue":"かつしかシンフォニーヒルズ","longitude":139.8522125,"latitude":35.7424583},{"num_of_people":0.4802473665264534,"start":18,"date":"2016-5-30","venue":"日本武道館","longitude":139.7497593,"latitude":35.6934055},{"num_of_people":0.06959766947420025,"start":18,"date":"2016-5-30","venue":"東京グローブ座","longitude":139.7003548,"latitude":35.7047637},{"num_of_people":0.19419139007959244,"start":19,"date":"2016-5-30","venue":"東京文化会館","longitude":139.7752986,"latitude":35.714415},{"num_of_people":0.0388807710369409,"start":19,"date":"2016-5-30","venue":"本多劇場","longitude":139.6683205,"latitude":35.6615874},{"num_of_people":0.13790409646227905,"start":19,"date":"2016-5-30","venue":"EXシアター六本木(EX THEATER ROPPONGI)","longitude":139.7271569,"latitude":35.6611948},{"num_of_people":0.06138434972953347,"start":12,"date":"2016-5-31","venue":"シアタークリエ","longitude":139.7596899,"latitude":35.672636},{"num_of_people":0.07939902442168814,"start":14,"date":"2016-5-31","venue":"AiiA Theater Tokyo","longitude":139.6998092,"latitude":35.6669377},{"num_of_people":0.009833749208072765,"start":14,"date":"2016-5-31","venue":"赤坂RED/THEATER","longitude":139.7370814,"latitude":35.6755898},{"num_of_people":0.14581851986883435,"start":18,"date":"2016-5-31","venue":"帝国劇場","longitude":139.7608036,"latitude":35.6767439},{"num_of_people":0.4802473665264534,"start":18,"date":"2016-5-31","venue":"日本武道館","longitude":139.7497593,"latitude":35.6934055}]

^^^^^^^^^^^^^^^^^^^
log
[{"num_of_people":11098,"start":8,"date":"2016-5-21","venue":"両国国技館","longitude":139.7936036,"latitude":35.6972034,"normed_num_of_people":0.7387934705737997},{"num_of_people":218,"start":13,"date":"2016-5-21","venue":"テアトル新宿","longitude":139.7052181,"latitude":35.6922864,"normed_num_of_people":0.09742862449137653},{"num_of_people":240,"start":15,"date":"2016-5-21","venue":"TFTホール","longitude":139.7904725,"latitude":35.6309772,"normed_num_of_people":0.11311892934068542},{"num_of_people":3000,"start":16,"date":"2016-5-21","venue":"TOKYO DOME CITY HALL","longitude":139.753828,"latitude":35.7049895,"normed_num_of_people":0.5253080401994313},{"num_of_people":14000,"start":17,"date":"2016-5-21","venue":"日本武道館","longitude":139.7497593,"latitude":35.6934055,"normed_num_of_people":0.7767026914758637},{"num_of_people":1000,"start":17,"date":"2016-5-21","venue":"LIQUIDROOM (リキッドルーム)","longitude":139.7105837,"latitude":35.6490402,"normed_num_of_people":0.346018779072719},{"num_of_people":609,"start":17,"date":"2016-5-21","venue":"シアタークリエ","longitude":139.7596899,"latitude":35.672636,"normed_num_of_people":0.26508378386691583},{"num_of_people":1255,"start":17,"date":"2016-5-21","venue":"四季劇場[春]","longitude":139.7620402,"latitude":35.6566796,"normed_num_of_people":0.3830864228667848},{"num_of_people":2222,"start":17,"date":"2016-5-21","venue":"中野サンプラザ","longitude":139.6646854,"latitude":35.707618,"normed_num_of_people":0.4763158151725067},{"num_of_people":3119,"start":17,"date":"2016-5-21","venue":"日比谷野外大音楽堂","longitude":139.7543263,"latitude":35.6728275,"normed_num_of_people":0.5316563935141161},{"num_of_people":501,"start":17,"date":"2016-5-21","venue":"よみうり大手町ホール","longitude":139.7644669,"latitude":35.6871844,"normed_num_of_people":0.23322591601111575},{"num_of_people":450,"start":17,"date":"2016-5-21","venue":"Shibuya WWW","longitude":139.6987557,"latitude":35.6615117,"normed_num_of_people":0.21570542254505748},{"num_of_people":55000,"start":18,"date":"2016-5-21","venue":"東京ドーム","longitude":139.7531449,"latitude":35.7028239,"normed_num_of_people":1},{"num_of_people":13243,"start":18,"date":"2016-5-21","venue":"国立代々木競技場 第一体育館","longitude":139.6998092,"latitude":35.6669377,"normed_num_of_people":0.7676309099606087},{"num_of_people":34572,"start":18,"date":"2016-5-21","venue":"神宮球場","longitude":139.716599,"latitude":35.67374849999999,"normed_num_of_people":0.9242298244402851},{"num_of_people":450,"start":18,"date":"2016-5-21","venue":"AREA","longitude":139.7016709,"latitude":35.7136295,"normed_num_of_people":0.21570542254505748},{"num_of_people":1000,"start":18,"date":"2016-5-21","venue":"UNIT","longitude":139.7071813,"latitude":35.6483457,"normed_num_of_people":0.346018779072719},{"num_of_people":3103,"start":18,"date":"2016-5-21","venue":"豊洲PIT","longitude":139.7889943,"latitude":35.6495585,"normed_num_of_people":0.5308170673650183},{"num_of_people":11098,"start":8,"date":"2016-5-22","venue":"両国国技館","longitude":139.7936036,"latitude":35.6972034,"normed_num_of_people":0.7387934705737997},